# 
# Header Description:
# 
# Version: v3.0.0.10 Platform: 11 Manufacturer: Xiaomi Model: Redmi Note 9 Pro
# 
# Raw,utcTimeMillis,TimeNanos,LeapSecond,TimeUncertaintyNanos,FullBiasNanos,BiasNanos,BiasUncertaintyNanos,DriftNanosPerSecond,DriftUncertaintyNanosPerSecond,HardwareClockDiscontinuityCount,Svid,TimeOffsetNanos,State,ReceivedSvTimeNanos,ReceivedSvTimeUncertaintyNanos,Cn0DbHz,PseudorangeRateMetersPerSecond,PseudorangeRateUncertaintyMetersPerSecond,AccumulatedDeltaRangeState,AccumulatedDeltaRangeMeters,AccumulatedDeltaRangeUncertaintyMeters,CarrierFrequencyHz,CarrierCycles,CarrierPhase,CarrierPhaseUncertainty,MultipathIndicator,SnrInDb,ConstellationType,AgcDb,BasebandCn0DbHz,FullInterSignalBiasNanos,FullInterSignalBiasUncertaintyNanos,SatelliteInterSignalBiasNanos,SatelliteInterSignalBiasUncertaintyNanos,CodeType,ChipsetElapsedRealtimeNanos
# 
# UncalAccel,utcTimeMillis,elapsedRealtimeNanos,UncalAccelXMps2,UncalAccelYMps2,UncalAccelZMps2,BiasXMps2,BiasYMps2,BiasZMps2
# 
# UncalGyro,utcTimeMillis,elapsedRealtimeNanos,UncalGyroXRadPerSec,UncalGyroYRadPerSec,UncalGyroZRadPerSec,DriftXRadPerSec,DriftYRadPerSec,DriftZRadPerSec
# 
# UncalMag,utcTimeMillis,elapsedRealtimeNanos,UncalMagXMicroT,UncalMagYMicroT,UncalMagZMicroT,BiasXMicroT,BiasYMicroT,BiasZMicroT
# 
# OrientationDeg,utcTimeMillis,elapsedRealtimeNanos,yawDeg,rollDeg,pitchDeg
# 
# Fix,Provider,LatitudeDegrees,LongitudeDegrees,AltitudeMeters,SpeedMps,AccuracyMeters,BearingDegrees,UnixTimeMillis,SpeedAccuracyMps,BearingAccuracyDegrees,elapsedRealtimeNanos
# 
# Nav,Svid,Type,Status,MessageId,Sub-messageId,Data(Bytes)
# 
# Status,UnixTimeMillis,SignalCount,SignalIndex,ConstellationType,Svid,CarrierFrequencyHz,Cn0DbHz,AzimuthDegrees,ElevationDegrees,UsedInFix,HasAlmanacData,HasEphemerisData,BasebandCn0DbHz
# 
OrientationDeg,1640343365907,950555235718112,139,3,-21
OrientationDeg,1640343365918,950555245431497,139,3,-21
OrientationDeg,1640343365928,950555255144049,138,2,-21
OrientationDeg,1640343365937,950555264855820,138,2,-21
OrientationDeg,1640343365947,950555274568424,138,2,-21
OrientationDeg,1640343365957,950555284281810,138,2,-21
OrientationDeg,1640343365965,950555293994362,138,2,-21
OrientationDeg,1640343365975,950555303706133,138,1,-21
OrientationDeg,1640343365985,950555313418737,138,1,-21
OrientationDeg,1640343365995,950555323132122,139,1,-21
OrientationDeg,1640343366005,950555332844674,139,1,-21
OrientationDeg,1640343366014,950555342556445,139,1,-21
OrientationDeg,1640343366024,950555352269049,139,0,-21
OrientationDeg,1640343366034,950555361982435,139,0,-21
OrientationDeg,1640343366043,950555371694987,139,0,-21
OrientationDeg,1640343366053,950555381406706,139,0,-21
OrientationDeg,1640343366064,950555391119362,139,0,-21
OrientationDeg,1640343366072,950555400832747,138,0,-21
OrientationDeg,1640343366083,950555410545299,138,0,-21
Status,0,26,0,1,5,1575420032,21,50,271,00,59,00,1,1,1,21.5
Status,0,26,1,1,7,1575420032,28,30,54,00,35,00,1,1,1,28.3
Status,0,26,2,1,9,1575420032,25,20,104,00,7,00,1,1,1,25.2
Status,0,26,3,1,13,1575420032,25,30,296,00,48,00,1,1,1,25.3
Status,0,26,4,1,14,1575420032,39,70,142,00,44,00,1,1,1,39.7
Status,0,26,5,1,20,1575420032,35,70,210,00,54,00,1,1,1,35.7
Status,0,26,6,1,30,1575420032,24,50,53,00,66,00,1,1,1,24.5
Status,0,26,7,1,2,1575420032,0,00,223,00,2,00,0,1,1,0.0
Status,0,26,8,1,8,1575420032,0,00,49,00,4,00,0,1,1,0.0
Status,0,26,9,1,15,1575420032,0,00,295,00,18,00,0,1,1,0.0
Status,0,26,10,1,18,1575420032,0,00,323,00,8,00,0,1,1,0.0
Status,0,26,11,3,6,1599750016,16,40,341,00,71,00,0,1,0,16.4
Status,0,26,12,3,9,1600875008,28,50,205,00,23,00,0,1,0,28.5
Status,0,26,13,3,15,1602000000,22,60,36,00,40,00,0,1,0,22.6
Status,0,26,14,3,5,1602562560,30,50,120,00,37,00,1,1,0,30.5
Status,0,26,15,3,22,1600312448,0,00,293,00,4,00,0,1,0,0.0
Status,0,26,16,3,23,1603687552,0,00,351,00,6,00,0,1,0,0.0
Status,0,26,17,3,7,1604812544,0,00,316,00,20,00,0,1,0,0.0
Status,0,26,18,5,14,1561097984,19,90,264,00,80,00,1,1,0,19.9
Status,0,26,19,5,10,1561097984,26,40,66,00,30,00,1,1,0,26.4
Status,0,26,20,5,7,1561097984,29,20,53,00,24,00,1,1,0,29.2
Status,0,26,21,5,5,1561097984,25,20,120,00,17,00,1,1,0,25.2
Status,0,26,22,5,21,1561097984,0,00,136,00,15,00,0,1,0,0.0
Status,0,26,23,5,24,1561097984,0,00,205,00,58,00,0,1,0,0.0
Status,0,26,24,5,25,1561097984,0,00,220,00,4,00,0,1,0,0.0
Status,0,26,25,5,26,1561097984,0,00,64,00,64,00,0,1,0,0.0
OrientationDeg,1640343366093,950555420257018,138,0,-21
OrientationDeg,1640343366102,950555429969674,138,0,-21
Raw,1640343365443,418148014000000,18,,-1323960435429363140,-0.016794204711914062,57.05390503862873,-5.723352945468357,10.7559267459603,78,7,0.0,16399,471383368372414,27,28.3,465.6010437011719,0.6285000443458557,16,0.0,0.0,1.57542003E9,,,,0,,1,3.57,24.8,0.0,0.0,,,C,
Raw,1640343365443,418148014000000,18,,-1323960435429363140,-0.016794204711914062,57.05390503862873,-5.723352945468357,10.7559267459603,78,9,0.0,16399,471383359881129,40,25.2,599.3394165039062,0.7849999666213989,16,0.0,0.0,1.57542003E9,,,,0,,1,3.57,21.7,0.0,0.0,,,C,
Raw,1640343365443,418148014000000,18,,-1323960435429363140,-0.016794204711914062,57.05390503862873,-5.723352945468357,10.7559267459603,78,13,0.0,16399,471383372598488,40,25.3,-387.1905517578125,0.8044999837875366,16,0.0,0.0,1.57542003E9,,,,0,,1,3.57,21.8,0.0,0.0,,,C,
Raw,1640343365443,418148014000000,18,,-1323960435429363140,-0.016794204711914062,57.05390503862873,-5.723352945468357,10.7559267459603,78,14,0.0,16399,471383370887815,8,39.7,-442.4602355957031,0.03620000183582306,16,-0.0,1902.9177342976868,1.57542003E9,,,,0,,1,3.57,36.2,0.0,0.0,,,C,
Raw,1640343365443,418148014000000,18,,-1323960435429363140,-0.016794204711914062,57.05390503862873,-5.723352945468357,10.7559267459603,78,20,0.0,16399,471383373842280,12,35.7,349.87030029296875,0.04350000247359276,16,-0.0,1902.9177342976868,1.57542003E9,,,,0,,1,3.57,32.2,0.0,0.0,,,C,
Raw,1640343365443,418148014000000,18,,-1323960435429363140,-0.016794204711914062,57.05390503862873,-5.723352945468357,10.7559267459603,78,30,0.0,16399,471383373850221,40,24.5,243.87086486816406,0.8659999966621399,16,0.0,0.0,1.57542003E9,,,,0,,1,3.57,21.0,0.0,0.0,,,C,
Raw,1640343365443,418148014000000,18,,-1323960435429363140,-0.016794204711914062,57.05390503862873,-5.723352945468357,10.7559267459603,78,9,0.0,49359,50165369122091,27,28.5,-753.4442138671875,0.8299999833106995,16,0.0,0.0,1.60087501E9,,,,0,,3,0.72,24.5,3808.142578125,17.542715072631836,,,C,
Raw,1640343365443,418148014000000,18,,-1323960435429363140,-0.016794204711914062,57.05390503862873,-5.723352945468357,10.7559267459603,78,15,0.0,49359,50165373558737,61,22.6,585.9146118164062,1.2160000801086426,16,0.0,0.0,1.602E9,,,,0,,3,0.72,18.6,3808.142578125,17.542715072631836,,,C,
Raw,1640343365443,418148014000000,18,,-1323960435429363140,-0.016794204711914062,57.05390503862873,-5.723352945468357,10.7559267459603,78,5,0.0,49359,50165373191817,21,30.5,531.4088745117188,0.2800999879837036,16,-0.0,1870.6881045945743,1.60256256E9,,,,0,,3,0.72,26.5,3808.142578125,17.542715072631836,,,C,
Raw,1640343365443,418148014000000,18,,-1323960435429363140,-0.016794204711914062,57.05390503862873,-5.723352945468357,10.7559267459603,78,14,0.0,16399,471369371739544,92,19.9,-33.606910705566406,2.0230000019073486,16,0.0,0.0,1.56109798E9,,,,0,,5,2.12,15.599999999999998,-1555.264404296875,25.12859344482422,,,I,
Raw,1640343365443,418148014000000,18,,-1323960435429363140,-0.016794204711914062,57.05390503862873,-5.723352945468357,10.7559267459603,78,10,0.0,16399,471369314146918,35,26.4,-79.946044921875,0.7475000023841858,16,0.0,0.0,1.56109798E9,,,,0,,5,2.12,22.099999999999998,-1555.264404296875,25.12859344482422,,,I,
Raw,1640343365443,418148014000000,18,,-1323960435429363140,-0.016794204711914062,57.05390503862873,-5.723352945468357,10.7559267459603,78,7,0.0,16399,471369312922514,27,29.2,-7.01904296875,0.5945000052452087,16,0.0,0.0,1.56109798E9,,,,0,,5,2.12,24.9,-1555.264404296875,25.12859344482422,,,I,
OrientationDeg,1640343366111,950555439683008,138,0,-21
OrientationDeg,1640343366121,950555449395612,137,0,-21
OrientationDeg,1640343366132,950555459107331,137,0,-21
OrientationDeg,1640343366141,950555468819987,137,-1,-21
OrientationDeg,1640343366150,950555478533372,137,-1,-21
OrientationDeg,1640343366160,950555488245924,136,-1,-21
OrientationDeg,1640343366170,950555497957643,136,-2,-21
OrientationDeg,1640343366180,950555507670299,136,-2,-21
OrientationDeg,1640343366189,950555517383633,136,-2,-21
OrientationDeg,1640343366199,950555527096237,136,-2,-21
OrientationDeg,1640343366209,950555536807956,136,-2,-21
OrientationDeg,1640343366219,950555546520612,136,-2,-21
OrientationDeg,1640343366228,950555556233997,135,-2,-21
OrientationDeg,1640343366238,950555565946549,135,-1,-21
OrientationDeg,1640343366248,950555575658268,135,-1,-21
OrientationDeg,1640343366257,950555585370924,135,-1,-21
OrientationDeg,1640343366267,950555595084310,135,-1,-21
OrientationDeg,1640343366277,950555604796862,135,-1,-21
OrientationDeg,1640343366287,950555614508633,135,-1,-21
OrientationDeg,1640343366296,950555624221237,134,-1,-21
OrientationDeg,1640343366305,950555633934622,134,-1,-21
OrientationDeg,1640343366315,950555643647174,135,-1,-21
OrientationDeg,1640343366326,950555653358945,135,-1,-20
OrientationDeg,1640343366336,950555663071549,135,-1,-20
OrientationDeg,1640343366344,950555672784935,135,-1,-20
OrientationDeg,1640343366354,950555682497487,135,-2,-20
OrientationDeg,1640343366365,950555692209258,135,-2,-20
OrientationDeg,1640343366374,950555701921862,135,-2,-20
OrientationDeg,1640343366383,950555711635247,135,-2,-20
OrientationDeg,1640343366393,950555721347799,135,-2,-20
OrientationDeg,1640343366404,950555731059570,135,-2,-20
OrientationDeg,1640343366413,950555740772174,135,-2,-20
OrientationDeg,1640343366422,950555750485560,135,-2,-20
OrientationDeg,1640343366433,950555760198164,135,-2,-20
OrientationDeg,1640343366442,950555769909883,136,-2,-20
OrientationDeg,1640343366452,950555779622539,136,-2,-20
OrientationDeg,1640343366462,950555789335872,136,-2,-20
OrientationDeg,1640343366472,950555799048476,136,-2,-20
OrientationDeg,1640343366481,950555808760195,136,-2,-20
OrientationDeg,1640343366491,950555818472851,136,-2,-20
OrientationDeg,1640343366500,950555828186185,136,-2,-20
OrientationDeg,1640343366509,950555837898789,136,-2,-20
OrientationDeg,1640343366519,950555847610508,136,-3,-20
OrientationDeg,1640343366529,950555857323164,136,-2,-20
OrientationDeg,1640343366539,950555867036549,136,-2,-20
OrientationDeg,1640343366548,950555876749101,136,-2,-20
OrientationDeg,1640343366558,950555886460872,137,-2,-21
OrientationDeg,1640343366568,950555896173476,137,-2,-21
Fix,GPS,44.4282443,8.7447771,92.163391,0.000000,4.110402,0.000000,1640343366000,0.40459856,0.0,950555431619290
OrientationDeg,1640343366577,950555905886862,137,-2,-21
OrientationDeg,1640343366587,950555915599414,137,-2,-21
OrientationDeg,1640343366598,950555925311185,137,-2,-21
OrientationDeg,1640343366607,950555935023789,137,-2,-21
OrientationDeg,1640343366616,950555944737174,137,-2,-21
OrientationDeg,1640343366626,950555954449726,137,-2,-21
OrientationDeg,1640343366636,950555964161497,137,-2,-21
OrientationDeg,1640343366646,950555973874101,137,-2,-21
OrientationDeg,1640343366655,950555983587487,137,-2,-21
OrientationDeg,1640343366665,950555993300091,137,-2,-21
OrientationDeg,1640343366675,950556003011810,137,-2,-21
OrientationDeg,1640343366684,950556012724466,137,-2,-22
OrientationDeg,1640343366694,950556022437799,137,-2,-22
OrientationDeg,1640343366704,950556032150403,137,-1,-22
OrientationDeg,1640343366714,950556041862122,138,-1,-22
OrientationDeg,1640343366723,950556051574778,138,-1,-22
OrientationDeg,1640343366733,950556061288112,138,-1,-23
OrientationDeg,1640343366744,950556071000716,138,-1,-23
OrientationDeg,1640343366753,950556080712435,138,-1,-24
OrientationDeg,1640343366763,950556090425091,138,0,-24
OrientationDeg,1640343366772,950556100138476,138,0,-24
OrientationDeg,1640343366781,950556109851028,137,0,-24
OrientationDeg,1640343366791,950556119562799,137,0,-24
OrientationDeg,1640343366802,950556129275403,137,0,-24
OrientationDeg,1640343366810,950556138988789,137,0,-24
OrientationDeg,1640343366820,950556148701341,137,0,-24
OrientationDeg,1640343366830,950556158413112,137,0,-24
OrientationDeg,1640343366841,950556168125716,137,-1,-24
OrientationDeg,1640343366849,950556177839101,137,-1,-24
OrientationDeg,1640343366860,950556187551706,137,-1,-23
OrientationDeg,1640343366870,950556197263424,137,-1,-23
OrientationDeg,1640343366878,950556206976081,137,-1,-23
OrientationDeg,1640343366889,950556216689414,137,-1,-23
OrientationDeg,1640343366898,950556226402018,137,-1,-22
OrientationDeg,1640343366908,950556236113737,137,-1,-22
OrientationDeg,1640343366918,950556245826393,137,-1,-22
OrientationDeg,1640343366927,950556255539726,137,-2,-22
OrientationDeg,1640343366938,950556265252331,137,-2,-21
OrientationDeg,1640343366947,950556274964049,137,-2,-21
OrientationDeg,1640343366957,950556284676706,137,-2,-21
OrientationDeg,1640343366967,950556294390091,137,-2,-21
OrientationDeg,1640343366977,950556304102643,138,-2,-21
OrientationDeg,1640343366986,950556313814414,138,-2,-21
OrientationDeg,1640343366996,950556323527018,138,-2,-21
OrientationDeg,1640343367006,950556333240403,138,-2,-21
OrientationDeg,1640343367014,950556342952956,138,-2,-21
OrientationDeg,1640343367025,950556352664726,138,-2,-21
OrientationDeg,1640343367035,950556362377331,138,-2,-21
OrientationDeg,1640343367044,950556372090716,138,-2,-21
OrientationDeg,1640343367054,950556381803268,138,-2,-21
OrientationDeg,1640343367063,950556391515039,138,-2,-21
OrientationDeg,1640343367074,950556401227695,138,-2,-21
OrientationDeg,1640343367082,950556410941028,138,-2,-21
Status,1640343366000,26,0,1,5,1575420032,20,80,271,00,59,00,1,1,1,20.8
Status,1640343366000,26,1,1,7,1575420032,25,40,54,00,35,00,1,1,1,25.4
Status,1640343366000,26,2,1,9,1575420032,22,50,104,00,7,00,1,1,1,22.5
Status,1640343366000,26,3,1,13,1575420032,27,40,296,00,48,00,1,1,1,27.4
Status,1640343366000,26,4,1,14,1575420032,41,20,142,00,44,00,1,1,1,41.2
Status,1640343366000,26,5,1,20,1575420032,35,70,210,00,54,00,1,1,1,35.7
Status,1640343366000,26,6,1,30,1575420032,25,20,53,00,66,00,1,1,1,25.2
Status,1640343366000,26,7,1,2,1575420032,0,00,223,00,2,00,0,1,1,0.0
Status,1640343366000,26,8,1,8,1575420032,0,00,49,00,4,00,0,1,1,0.0
Status,1640343366000,26,9,1,15,1575420032,0,00,295,00,18,00,0,1,1,0.0
Status,1640343366000,26,10,1,18,1575420032,0,00,323,00,8,00,0,1,1,0.0
Status,1640343366000,26,11,3,6,1599750016,16,40,341,00,71,00,0,1,0,16.4
Status,1640343366000,26,12,3,9,1600875008,25,30,205,00,23,00,0,1,0,25.3
Status,1640343366000,26,13,3,15,1602000000,22,90,36,00,40,00,0,1,0,22.9
Status,1640343366000,26,14,3,5,1602562560,31,10,120,00,37,00,1,1,0,31.1
Status,1640343366000,26,15,3,22,1600312448,0,00,293,00,4,00,0,1,0,0.0
Status,1640343366000,26,16,3,23,1603687552,0,00,351,00,6,00,0,1,0,0.0
Status,1640343366000,26,17,3,7,1604812544,0,00,316,00,20,00,0,1,0,0.0
Status,1640343366000,26,18,5,14,1561097984,19,90,264,00,80,00,1,1,0,19.9
Status,1640343366000,26,19,5,10,1561097984,23,10,66,00,30,00,1,1,0,23.1
Status,1640343366000,26,20,5,7,1561097984,27,10,53,00,24,00,1,1,0,27.1
Status,1640343366000,26,21,5,5,1561097984,24,30,120,00,17,00,1,1,0,24.3
Status,1640343366000,26,22,5,21,1561097984,0,00,136,00,15,00,0,1,0,0.0
Status,1640343366000,26,23,5,24,1561097984,0,00,205,00,58,00,0,1,0,0.0
Status,1640343366000,26,24,5,25,1561097984,0,00,220,00,4,00,0,1,0,0.0
Status,1640343366000,26,25,5,26,1561097984,0,00,64,00,64,00,0,1,0,0.0
OrientationDeg,1640343367092,950556420653633,138,-2,-21
Raw,1640343366443,418149014000000,18,,-1323960435429363150,-0.44760704040527344,60.22703382768668,-8.788735503864089,14.005221895377323,78,5,0.0,16399,471384374002624,70,20.8,-50.31364440917969,1.9375,16,0.0,0.0,1.57542003E9,,,,0,,1,3.9,17.3,0.0,0.0,,,C,
Raw,1640343366443,418149014000000,18,,-1323960435429363150,-0.44760704040527344,60.22703382768668,-8.788735503864089,14.005221895377323,78,7,0.0,16399,471384368370875,40,25.4,465.65814208984375,0.7985000014305115,16,0.0,0.0,1.57542003E9,,,,0,,1,3.9,21.9,0.0,0.0,,,C,
Raw,1640343366443,418149014000000,18,,-1323960435429363150,-0.44760704040527344,60.22703382768668,-8.788735503864089,14.005221895377323,78,9,0.0,16399,471384359879033,53,22.5,598.3499145507812,0.9950000047683716,16,0.0,0.0,1.57542003E9,,,,0,,1,3.9,19.0,0.0,0.0,,,C,
Raw,1640343366443,418149014000000,18,,-1323960435429363150,-0.44760704040527344,60.22703382768668,-8.788735503864089,14.005221895377323,78,13,0.0,16399,471384372599847,31,27.4,-387.009765625,0.684499979019165,16,0.0,0.0,1.57542003E9,,,,0,,1,3.9,23.9,0.0,0.0,,,C,
Raw,1640343366443,418149014000000,18,,-1323960435429363150,-0.44760704040527344,60.22703382768668,-8.788735503864089,14.005221895377323,78,14,0.0,16399,471384370889285,7,41.2,-442.1857604980469,0.0357000008225441,16,-0.0,1902.9177342976868,1.57542003E9,,,,0,,1,3.9,37.7,0.0,0.0,,,C,
Raw,1640343366443,418149014000000,18,,-1323960435429363150,-0.44760704040527344,60.22703382768668,-8.788735503864089,14.005221895377323,78,20,0.0,16399,471384373841111,12,35.7,350.1209411621094,0.04350000247359276,16,-0.0,1902.9177342976868,1.57542003E9,,,,0,,1,3.9,32.2,0.0,0.0,,,C,
Raw,1640343366443,418149014000000,18,,-1323960435429363150,-0.44760704040527344,60.22703382768668,-8.788735503864089,14.005221895377323,78,30,0.0,16399,471384373849441,40,25.2,244.2895050048828,0.8059999942779541,16,0.0,0.0,1.57542003E9,,,,0,,1,3.9,21.7,0.0,0.0,,,C,
Raw,1640343366443,418149014000000,18,,-1323960435429363150,-0.44760704040527344,60.22703382768668,-8.788735503864089,14.005221895377323,78,9,0.0,49359,50166369124472,40,25.3,-752.9854125976562,0.9999999403953552,16,0.0,0.0,1.60087501E9,,,,0,,3,1.0,21.3,3808.142578125,17.542715072631836,,,C,
Raw,1640343366443,418149014000000,18,,-1323960435429363150,-0.44760704040527344,60.22703382768668,-8.788735503864089,14.005221895377323,78,15,0.0,49359,50166373556400,61,22.9,584.9134521484375,1.2160000801086426,16,0.0,0.0,1.602E9,,,,0,,3,1.0,18.9,3808.142578125,17.542715072631836,,,C,
Raw,1640343366443,418149014000000,18,,-1323960435429363150,-0.44760704040527344,60.22703382768668,-8.788735503864089,14.005221895377323,78,5,0.0,49359,50166373190068,19,31.1,531.6660766601562,0.26170000433921814,16,-0.0,1870.6881045945743,1.60256256E9,,,,0,,3,1.0,27.1,3808.142578125,17.542715072631836,,,C,
Raw,1640343366443,418149014000000,18,,-1323960435429363150,-0.44760704040527344,60.22703382768668,-8.788735503864089,14.005221895377323,78,10,0.0,16399,471370314147176,61,23.1,-79.50434875488281,0.9375,16,0.0,0.0,1.56109798E9,,,,0,,5,2.08,18.8,-1555.264404296875,25.12859344482422,,,I,
Raw,1640343366443,418149014000000,18,,-1323960435429363150,-0.44760704040527344,60.22703382768668,-8.788735503864089,14.005221895377323,78,7,0.0,16399,471370312922557,35,27.1,-6.942227840423584,0.684499979019165,16,0.0,0.0,1.56109798E9,,,,0,,5,2.08,22.8,-1555.264404296875,25.12859344482422,,,I,
Raw,1640343366443,418149014000000,18,,-1323960435429363150,-0.44760704040527344,60.22703382768668,-8.788735503864089,14.005221895377323,78,5,0.0,16399,471370311057090,46,24.3,3.30307936668396,7.626299858093262,16,0.0,0.0,1.56109798E9,,,,0,,5,2.08,20.0,-1555.264404296875,25.12859344482422,,,I,
OrientationDeg,1640343367102,950556430365351,138,-1,-21
OrientationDeg,1640343367113,950556440078008,138,-1,-21
OrientationDeg,1640343367122,950556449791341,138,-1,-21
OrientationDeg,1640343367131,950556459503945,138,-1,-21
OrientationDeg,1640343367142,950556469215664,138,-1,-21
OrientationDeg,1640343367151,950556478928320,138,-1,-21
OrientationDeg,1640343367160,950556488641706,138,-1,-21
OrientationDeg,1640343367171,950556498354258,138,-1,-21
OrientationDeg,1640343367181,950556508066028,138,-1,-21
OrientationDeg,1640343367189,950556517778633,138,-1,-21
OrientationDeg,1640343367199,950556527492018,138,-2,-21
OrientationDeg,1640343367209,950556537204570,138,-2,-21
OrientationDeg,1640343367219,950556546916341,137,-2,-21
OrientationDeg,1640343367228,950556556628945,137,-3,-21
OrientationDeg,1640343367238,950556566342331,137,-3,-21
OrientationDeg,1640343367249,950556576054883,137,-3,-21
OrientationDeg,1640343367257,950556585766653,137,-3,-21
OrientationDeg,1640343367267,950556595479258,137,-2,-20
OrientationDeg,1640343367277,950556605192643,137,-2,-20
OrientationDeg,1640343367287,950556614905247,137,-2,-20
OrientationDeg,1640343367297,950556624616966,137,-2,-20
OrientationDeg,1640343367306,950556634329622,137,-2,-20
OrientationDeg,1640343367316,950556644042956,137,-2,-20
OrientationDeg,1640343367325,950556653755560,137,-2,-20
OrientationDeg,1640343367336,950556663467278,137,-2,-21
OrientationDeg,1640343367345,950556673179935,137,-1,-21
OrientationDeg,1640343367354,950556682893320,137,-1,-21
OrientationDeg,1640343367364,950556692605872,137,-1,-21
OrientationDeg,1640343367375,950556702317591,137,-1,-21
OrientationDeg,1640343367385,950556712030247,137,-1,-21
OrientationDeg,1640343367393,950556721743633,137,-1,-21
OrientationDeg,1640343367404,950556731456185,137,-1,-22
OrientationDeg,1640343367414,950556741167956,138,-1,-22
OrientationDeg,1640343367422,950556750880560,138,-1,-22
OrientationDeg,1640343367433,950556760593945,138,0,-22
OrientationDeg,1640343367443,950556770306497,138,0,-22
OrientationDeg,1640343367452,950556780018268,138,0,-22
OrientationDeg,1640343367461,950556789730872,138,0,-22
OrientationDeg,1640343367472,950556799444258,138,0,-22
OrientationDeg,1640343367481,950556809156862,138,0,-22
OrientationDeg,1640343367490,950556818868581,138,0,-22
OrientationDeg,1640343367500,950556828581185,138,0,-22
OrientationDeg,1640343367511,950556838294570,138,0,-22
OrientationDeg,1640343367521,950556848007174,138,0,-22
Fix,GPS,44.4282443,8.7447773,92.172119,0.000000,4.059032,0.000000,1640343367000,0.4967897,0.0,950556430515853
OrientationDeg,1640343367529,950556857718893,138,0,-22
OrientationDeg,1640343367539,950556867431549,138,0,-22
OrientationDeg,1640343367549,950556877144883,138,0,-22
OrientationDeg,1640343367558,950556886857487,138,0,-22
OrientationDeg,1640343367569,950556896569206,138,0,-22
OrientationDeg,1640343367578,950556906281862,138,0,-22
OrientationDeg,1640343367587,950556915995195,138,0,-22
OrientationDeg,1640343367597,950556925707799,138,0,-22
OrientationDeg,1640343367607,950556935419518,138,0,-22
OrientationDeg,1640343367617,950556945132174,138,0,-22
OrientationDeg,1640343367626,950556954845560,138,0,-22
OrientationDeg,1640343367636,950556964558112,138,1,-22
OrientationDeg,1640343367646,950556974269831,138,1,-22
OrientationDeg,1640343367655,950556983982487,138,1,-22
OrientationDeg,1640343367665,950556993695872,139,1,-22
OrientationDeg,1640343367676,950557003408424,139,1,-22
OrientationDeg,1640343367685,950557013120195,139,1,-22
OrientationDeg,1640343367695,950557022832799,138,1,-22
OrientationDeg,1640343367705,950557032546185,138,1,-22
OrientationDeg,1640343367715,950557042258737,139,1,-22
OrientationDeg,1640343367724,950557051970508,138,1,-23
OrientationDeg,1640343367734,950557061683112,139,1,-23
OrientationDeg,1640343367743,950557071396497,139,1,-23
OrientationDeg,1640343367754,950557081109049,139,1,-22
OrientationDeg,1640343367762,950557090820820,139,1,-22
OrientationDeg,1640343367772,950557100533424,139,1,-22
OrientationDeg,1640343367783,950557110246810,139,1,-22
OrientationDeg,1640343367791,950557119959414,139,2,-22
OrientationDeg,1640343367801,950557129671133,139,2,-22
OrientationDeg,1640343367811,950557139383737,139,1,-22
OrientationDeg,1640343367821,950557149097122,139,1,-22
OrientationDeg,1640343367830,950557158809726,139,2,-22
OrientationDeg,1640343367841,950557168521445,139,2,-22
OrientationDeg,1640343367850,950557178234049,139,2,-22
OrientationDeg,1640343367859,950557187947435,139,2,-22
OrientationDeg,1640343367869,950557197660039,139,2,-22
OrientationDeg,1640343367879,950557207371758,139,2,-22
OrientationDeg,1640343367890,950557217084414,139,2,-22
OrientationDeg,1640343367898,950557226797747,139,2,-22
OrientationDeg,1640343367909,950557236510351,139,2,-22
OrientationDeg,1640343367918,950557246222070,139,2,-22
OrientationDeg,1640343367927,950557255934726,139,2,-22
OrientationDeg,1640343367937,950557265648060,139,2,-22
OrientationDeg,1640343367947,950557275360664,139,2,-22
OrientationDeg,1640343367957,950557285072383,139,2,-22
OrientationDeg,1640343367967,950557294785039,139,2,-22
OrientationDeg,1640343367976,950557304498372,139,2,-22
OrientationDeg,1640343367987,950557314210976,139,2,-22
OrientationDeg,1640343367995,950557323922695,139,2,-22
OrientationDeg,1640343368006,950557333635351,139,2,-22
OrientationDeg,1640343368016,950557343348737,138,2,-22
OrientationDeg,1640343368026,950557353061289,139,2,-22
OrientationDeg,1640343368035,950557362773060,139,2,-22
OrientationDeg,1640343368045,950557372485664,139,2,-22
OrientationDeg,1640343368054,950557382199049,139,2,-22
OrientationDeg,1640343368063,950557391911601,139,2,-22
OrientationDeg,1640343368073,950557401623372,139,2,-22
OrientationDeg,1640343368084,950557411335976,139,2,-22
Status,1640343367000,26,0,1,5,1575420032,24,10,271,00,59,00,1,1,1,24.1
Status,1640343367000,26,1,1,7,1575420032,26,50,54,00,35,00,1,1,1,26.5
Status,1640343367000,26,2,1,9,1575420032,22,50,104,00,7,00,1,1,1,22.5
Status,1640343367000,26,3,1,13,1575420032,27,10,296,00,48,00,1,1,1,27.1
Status,1640343367000,26,4,1,14,1575420032,41,60,142,00,44,00,1,1,1,41.6
Status,1640343367000,26,5,1,20,1575420032,36,40,210,00,54,00,1,1,1,36.4
Status,1640343367000,26,6,1,30,1575420032,25,60,53,00,66,00,1,1,1,25.6
Status,1640343367000,26,7,1,2,1575420032,0,00,223,00,2,00,0,1,1,0.0
Status,1640343367000,26,8,1,8,1575420032,0,00,49,00,4,00,0,1,1,0.0
Status,1640343367000,26,9,1,15,1575420032,0,00,295,00,18,00,0,1,1,0.0
Status,1640343367000,26,10,1,18,1575420032,0,00,323,00,8,00,0,1,1,0.0
Status,1640343367000,26,11,3,6,1599750016,16,40,341,00,71,00,0,1,0,16.4
Status,1640343367000,26,12,3,9,1600875008,25,20,205,00,23,00,0,1,0,25.2
Status,1640343367000,26,13,3,15,1602000000,24,80,36,00,40,00,0,1,0,24.8
Status,1640343367000,26,14,3,5,1602562560,27,30,120,00,37,00,1,1,0,27.3
Status,1640343367000,26,15,3,22,1600312448,0,00,293,00,4,00,0,1,0,0.0
Status,1640343367000,26,16,3,23,1603687552,0,00,351,00,6,00,0,1,0,0.0
Status,1640343367000,26,17,3,7,1604812544,0,00,316,00,20,00,0,1,0,0.0
Status,1640343367000,26,18,5,14,1561097984,22,30,264,00,80,00,1,1,0,22.3
Status,1640343367000,26,19,5,10,1561097984,23,10,66,00,30,00,1,1,0,23.1
Status,1640343367000,26,20,5,7,1561097984,27,20,53,00,24,00,1,1,0,27.2
Status,1640343367000,26,21,5,5,1561097984,24,30,120,00,17,00,1,1,0,24.3
Status,1640343367000,26,22,5,21,1561097984,0,00,136,00,15,00,0,1,0,0.0
Status,1640343367000,26,23,5,24,1561097984,0,00,205,00,58,00,0,1,0,0.0
Status,1640343367000,26,24,5,25,1561097984,0,00,220,00,4,00,0,1,0,0.0
Status,1640343367000,26,25,5,26,1561097984,0,00,64,00,64,00,0,1,0,0.0
OrientationDeg,1640343368093,950557421049362,138,2,-22
OrientationDeg,1640343368103,950557430761914,138,2,-22
Raw,1640343367443,418150014000000,18,,-1323960435429363153,-0.8748741149902344,61.113445553928614,-8.543184433656787,15.106625740293158,78,5,0.0,16399,471385374002800,46,24.1,-49.29557800292969,0.8675000071525574,16,0.0,0.0,1.57542003E9,,,,0,,1,3.74,20.6,0.0,0.0,,,C,
Raw,1640343367443,418150014000000,18,,-1323960435429363153,-0.8748741149902344,61.113445553928614,-8.543184433656787,15.106625740293158,78,7,0.0,16399,471385368369277,31,26.5,465.0491943359375,0.7384999990463257,16,0.0,0.0,1.57542003E9,,,,0,,1,3.74,23.0,0.0,0.0,,,C,
Raw,1640343367443,418150014000000,18,,-1323960435429363153,-0.8748741149902344,61.113445553928614,-8.543184433656787,15.106625740293158,78,13,0.0,16399,471385372601164,31,27.1,-386.8099670410156,0.684499979019165,16,0.0,0.0,1.57542003E9,,,,0,,1,3.74,23.6,0.0,0.0,,,C,
Raw,1640343367443,418150014000000,18,,-1323960435429363153,-0.8748741149902344,61.113445553928614,-8.543184433656787,15.106625740293158,78,14,0.0,16399,471385370890770,6,41.6,-441.6605529785156,0.03530000150203705,16,-0.0,1902.9177342976868,1.57542003E9,,,,0,,1,3.74,38.1,0.0,0.0,,,C,
Raw,1640343367443,418150014000000,18,,-1323960435429363153,-0.8748741149902344,61.113445553928614,-8.543184433656787,15.106625740293158,78,20,0.0,16399,471385373839941,12,36.4,350.671142578125,0.04350000247359276,16,-0.0,1902.9177342976868,1.57542003E9,,,,0,,1,3.74,32.9,0.0,0.0,,,C,
Raw,1640343367443,418150014000000,18,,-1323960435429363153,-0.8748741149902344,61.113445553928614,-8.543184433656787,15.106625740293158,78,30,0.0,16399,471385373848679,35,25.6,244.77474975585938,0.8059999942779541,16,0.0,0.0,1.57542003E9,,,,0,,1,3.74,22.1,0.0,0.0,,,C,
Raw,1640343367443,418150014000000,18,,-1323960435429363153,-0.8748741149902344,61.113445553928614,-8.543184433656787,15.106625740293158,78,9,0.0,49359,50167369127340,40,25.2,-752.6951293945312,0.9999999403953552,16,0.0,0.0,1.60087501E9,,,,0,,3,0.99,21.2,3808.142578125,17.542715072631836,,,C,
Raw,1640343367443,418150014000000,18,,-1323960435429363153,-0.8748741149902344,61.113445553928614,-8.543184433656787,15.106625740293158,78,15,0.0,49359,50167373554775,46,24.8,586.7286376953125,1.065999984741211,16,0.0,0.0,1.602E9,,,,0,,3,0.99,20.8,3808.142578125,17.542715072631836,,,C,
Raw,1640343367443,418150014000000,18,,-1323960435429363153,-0.8748741149902344,61.113445553928614,-8.543184433656787,15.106625740293158,78,5,0.0,49359,50167373188335,31,27.3,531.9916381835938,0.8859999775886536,16,0.0,0.0,1.60256256E9,,,,0,,3,0.99,23.3,3808.142578125,17.542715072631836,,,C,
Raw,1640343367443,418150014000000,18,,-1323960435429363153,-0.8748741149902344,61.113445553928614,-8.543184433656787,15.106625740293158,78,14,0.0,16399,471371371739721,61,22.3,-31.820941925048828,1.7630000114440918,16,0.0,0.0,1.56109798E9,,,,0,,5,2.1,18.0,-1555.264404296875,25.12859344482422,,,I,
Raw,1640343367443,418150014000000,18,,-1323960435429363153,-0.8748741149902344,61.113445553928614,-8.543184433656787,15.106625740293158,78,7,0.0,16399,471371312922558,35,27.2,-6.433322906494141,0.684499979019165,16,0.0,0.0,1.56109798E9,,,,0,,5,2.1,22.9,-1555.264404296875,25.12859344482422,,,I,
OrientationDeg,1640343368112,950557440473685,138,2,-22
OrientationDeg,1640343368122,950557450186289,138,2,-22
OrientationDeg,1640343368132,950557459899674,138,2,-23
OrientationDeg,1640343368141,950557469612226,138,2,-23
OrientationDeg,1640343368151,950557479323997,138,2,-23
OrientationDeg,1640343368161,950557489036601,138,2,-23
OrientationDeg,1640343368171,950557498749987,138,2,-23
OrientationDeg,1640343368181,950557508462591,138,2,-23
OrientationDeg,1640343368190,950557518174310,138,2,-23
OrientationDeg,1640343368199,950557527886966,138,2,-23
OrientationDeg,1640343368210,950557537600299,139,2,-23
OrientationDeg,1640343368220,950557547312903,139,2,-22
OrientationDeg,1640343368230,950557557024622,139,2,-22
OrientationDeg,1640343368238,950557566737278,139,2,-23
OrientationDeg,1640343368248,950557576450612,139,2,-23
OrientationDeg,1640343368258,950557586163216,139,2,-23
OrientationDeg,1640343368268,950557595874935,139,2,-23
OrientationDeg,1640343368278,950557605587591,139,2,-23
OrientationDeg,1640343368287,950557615300924,139,2,-23
OrientationDeg,1640343368297,950557625013528,139,2,-23
OrientationDeg,1640343368306,950557634725247,139,2,-23
OrientationDeg,1640343368316,950557644437903,139,2,-23
OrientationDeg,1640343368327,950557654151289,139,2,-23
OrientationDeg,1640343368336,950557663863841,139,2,-23
OrientationDeg,1640343368345,950557673575612,139,2,-23
OrientationDeg,1640343368355,950557683288216,139,2,-23
OrientationDeg,1640343368365,950557693001601,139,2,-23
OrientationDeg,1640343368374,950557702714153,139,2,-23
OrientationDeg,1640343368385,950557712425924,139,2,-22
OrientationDeg,1640343368394,950557722138528,139,2,-22
OrientationDeg,1640343368404,950557731851914,139,2,-22
OrientationDeg,1640343368414,950557741564466,139,2,-22
OrientationDeg,1640343368424,950557751276237,139,2,-22
OrientationDeg,1640343368433,950557760988841,139,2,-22
OrientationDeg,1640343368443,950557770702226,139,2,-22
OrientationDeg,1640343368453,950557780414778,139,2,-23
OrientationDeg,1640343368462,950557790126549,139,2,-23
OrientationDeg,1640343368471,950557799839153,139,2,-23
OrientationDeg,1640343368481,950557809552539,139,2,-23
OrientationDeg,1640343368491,950557819265143,139,2,-23
OrientationDeg,1640343368500,950557828976862,139,2,-23
Fix,GPS,44.4282443,8.7447776,92.222046,0.000000,4.324025,0.000000,1640343368000,0.3764306,0.0,950557436965279
OrientationDeg,1640343368510,950557838689466,139,2,-23
OrientationDeg,1640343368520,950557848402851,139,2,-23
OrientationDeg,1640343368530,950557858115456,139,2,-23
OrientationDeg,1640343368539,950557867827174,139,2,-23
OrientationDeg,1640343368549,950557877539778,139,2,-23
OrientationDeg,1640343368559,950557887253164,139,2,-23
OrientationDeg,1640343368568,950557896965716,139,2,-23
OrientationDeg,1640343368578,950557906677487,139,2,-23
OrientationDeg,1640343368589,950557916390091,139,2,-23
OrientationDeg,1640343368598,950557926103476,139,2,-23
OrientationDeg,1640343368607,950557935816081,139,2,-23
OrientationDeg,1640343368617,950557945527799,139,2,-23
OrientationDeg,1640343368627,950557955240403,139,2,-23
OrientationDeg,1640343368637,950557964953789,139,2,-23
OrientationDeg,1640343368647,950557974666393,139,2,-23
OrientationDeg,1640343368656,950557984378112,139,2,-23
OrientationDeg,1640343368667,950557994090716,139,2,-23
OrientationDeg,1640343368676,950558003804101,139,2,-23
OrientationDeg,1640343368685,950558013516653,139,2,-23
OrientationDeg,1640343368696,950558023228424,139,2,-23
OrientationDeg,1640343368704,950558032941028,139,2,-23
OrientationDeg,1640343368715,950558042654414,139,2,-23
OrientationDeg,1640343368724,950558052366966,139,2,-23
OrientationDeg,1640343368734,950558062078737,139,2,-23
OrientationDeg,1640343368743,950558071791341,139,2,-23
OrientationDeg,1640343368754,950558081504726,139,2,-23
OrientationDeg,1640343368763,950558091217278,139,2,-23
OrientationDeg,1640343368773,950558100929049,139,2,-23
OrientationDeg,1640343368782,950558110641653,139,2,-23
OrientationDeg,1640343368792,950558120355039,139,2,-23
OrientationDeg,1640343368803,950558130067591,139,2,-23
OrientationDeg,1640343368812,950558139779310,139,2,-23
OrientationDeg,1640343368822,950558149491966,139,2,-23
OrientationDeg,1640343368832,950558159205351,139,2,-23
OrientationDeg,1640343368840,950558168917903,139,2,-23
OrientationDeg,1640343368850,950558178629674,139,2,-23
OrientationDeg,1640343368860,950558188342278,139,2,-23
OrientationDeg,1640343368871,950558198055612,139,2,-23
OrientationDeg,1640343368880,950558207768216,139,2,-23
OrientationDeg,1640343368890,950558217479935,139,2,-23
OrientationDeg,1640343368899,950558227192591,139,2,-23
OrientationDeg,1640343368909,950558236905924,139,2,-23
OrientationDeg,1640343368919,950558246618528,139,2,-23
OrientationDeg,1640343368929,950558256330247,138,2,-23
OrientationDeg,1640343368938,950558266042903,138,2,-23
OrientationDeg,1640343368948,950558275756237,138,2,-23
OrientationDeg,1640343368957,950558285468841,139,2,-23
OrientationDeg,1640343368968,950558295180560,139,2,-23
OrientationDeg,1640343368976,950558304893216,139,2,-23
OrientationDeg,1640343368986,950558314606549,139,2,-23
OrientationDeg,1640343368996,950558324319153,139,2,-23
OrientationDeg,1640343369006,950558334030872,139,2,-23
OrientationDeg,1640343369015,950558343743528,139,2,-23
OrientationDeg,1640343369025,950558353456862,139,2,-23
OrientationDeg,1640343369036,950558363169466,139,2,-23
OrientationDeg,1640343369045,950558372881185,139,2,-23
OrientationDeg,1640343369054,950558382593789,139,2,-23
OrientationDeg,1640343369064,950558392307174,139,2,-23
OrientationDeg,1640343369075,950558402019778,139,2,-23
OrientationDeg,1640343369083,950558411731497,139,2,-23
OrientationDeg,1640343369093,950558421444101,139,2,-23
Status,1640343368000,26,0,1,5,1575420032,22,00,271,00,59,00,1,1,1,22.0
Status,1640343368000,26,1,1,7,1575420032,27,30,54,00,35,00,1,1,1,27.3
Status,1640343368000,26,2,1,9,1575420032,22,50,104,00,7,00,1,1,1,22.5
Status,1640343368000,26,3,1,13,1575420032,27,30,296,00,48,00,1,1,1,27.3
Status,1640343368000,26,4,1,14,1575420032,41,60,142,00,44,00,1,1,1,41.6
Status,1640343368000,26,5,1,20,1575420032,36,40,210,00,54,00,1,1,1,36.4
Status,1640343368000,26,6,1,30,1575420032,23,90,53,00,66,00,1,1,1,23.9
Status,1640343368000,26,7,1,2,1575420032,0,00,223,00,2,00,0,1,1,0.0
Status,1640343368000,26,8,1,8,1575420032,0,00,49,00,4,00,0,1,1,0.0
Status,1640343368000,26,9,1,15,1575420032,0,00,295,00,18,00,0,1,1,0.0
Status,1640343368000,26,10,1,18,1575420032,0,00,323,00,8,00,0,1,1,0.0
Status,1640343368000,26,11,3,6,1599750016,16,40,341,00,71,00,0,1,0,16.4
Status,1640343368000,26,12,3,9,1600875008,26,10,205,00,23,00,0,1,0,26.1
Status,1640343368000,26,13,3,15,1602000000,24,60,36,00,40,00,0,1,0,24.6
Status,1640343368000,26,14,3,5,1602562560,24,60,120,00,37,00,1,1,0,24.6
Status,1640343368000,26,15,3,22,1600312448,0,00,293,00,4,00,0,1,0,0.0
Status,1640343368000,26,16,3,23,1603687552,0,00,351,00,6,00,0,1,0,0.0
Status,1640343368000,26,17,3,7,1604812544,0,00,316,00,20,00,0,1,0,0.0
Status,1640343368000,26,18,5,14,1561097984,25,10,264,00,80,00,1,1,0,25.1
Status,1640343368000,26,19,5,10,1561097984,20,70,66,00,30,00,1,1,0,20.7
Status,1640343368000,26,20,5,7,1561097984,26,60,53,00,24,00,1,1,0,26.6
Status,1640343368000,26,21,5,5,1561097984,24,30,120,00,17,00,1,1,0,24.3
Status,1640343368000,26,22,5,21,1561097984,0,00,136,00,15,00,0,1,0,0.0
Status,1640343368000,26,23,5,24,1561097984,0,00,205,00,58,00,0,1,0,0.0
Status,1640343368000,26,24,5,25,1561097984,0,00,220,00,4,00,0,1,0,0.0
Status,1640343368000,26,25,5,26,1561097984,0,00,64,00,64,00,0,1,0,0.0
OrientationDeg,1640343369103,950558431157487,139,2,-23
Raw,1640343368443,418151014000000,18,,-1323960435429363162,-0.2791290283203125,63.826097175478935,-7.70577974071894,15.640014443793975,78,5,0.0,16399,471386374003033,61,22.0,-49.11479568481445,1.0175000429153442,16,0.0,0.0,1.57542003E9,,,,0,,1,3.8,18.5,0.0,0.0,,,C,
Raw,1640343368443,418151014000000,18,,-1323960435429363162,-0.2791290283203125,63.826097175478935,-7.70577974071894,15.640014443793975,78,7,0.0,16399,471386368367784,31,27.3,465.2109375,0.6784999966621399,16,0.0,0.0,1.57542003E9,,,,0,,1,3.8,23.8,0.0,0.0,,,C,
Raw,1640343368443,418151014000000,18,,-1323960435429363162,-0.2791290283203125,63.826097175478935,-7.70577974071894,15.640014443793975,78,13,0.0,16399,471386372602388,31,27.3,-387.0287780761719,0.684499979019165,16,0.0,0.0,1.57542003E9,,,,0,,1,3.8,23.8,0.0,0.0,,,C,
Raw,1640343368443,418151014000000,18,,-1323960435429363162,-0.2791290283203125,63.826097175478935,-7.70577974071894,15.640014443793975,78,14,0.0,16399,471386370892246,6,41.6,-442.0375671386719,0.03530000150203705,16,-0.0,1902.9177342976868,1.57542003E9,,,,0,,1,3.8,38.1,0.0,0.0,,,C,
Raw,1640343368443,418151014000000,18,,-1323960435429363162,-0.2791290283203125,63.826097175478935,-7.70577974071894,15.640014443793975,78,20,0.0,16399,471386373838771,12,36.4,350.31201171875,0.04350000247359276,16,-0.0,1902.9177342976868,1.57542003E9,,,,0,,1,3.8,32.9,0.0,0.0,,,C,
Raw,1640343368443,418151014000000,18,,-1323960435429363162,-0.2791290283203125,63.826097175478935,-7.70577974071894,15.640014443793975,78,30,0.0,16399,471386373847864,46,23.9,244.41319274902344,0.9359999895095825,16,0.0,0.0,1.57542003E9,,,,0,,1,3.8,20.4,0.0,0.0,,,C,
Raw,1640343368443,418151014000000,18,,-1323960435429363162,-0.2791290283203125,63.826097175478935,-7.70577974071894,15.640014443793975,78,9,0.0,49359,50168369129637,35,26.1,-753.4442138671875,0.9399999976158142,16,0.0,0.0,1.60087501E9,,,,0,,3,0.91,22.1,3808.142578125,17.542715072631836,,,C,
Raw,1640343368443,418151014000000,18,,-1323960435429363162,-0.2791290283203125,63.826097175478935,-7.70577974071894,15.640014443793975,78,15,0.0,49359,50168373552807,46,24.6,585.7742309570312,1.065999984741211,16,0.0,0.0,1.602E9,,,,0,,3,0.91,20.6,3808.142578125,17.542715072631836,,,C,
Raw,1640343368443,418151014000000,18,,-1323960435429363162,-0.2791290283203125,63.826097175478935,-7.70577974071894,15.640014443793975,78,5,0.0,49359,50168373186473,46,24.6,530.9814453125,1.065999984741211,16,0.0,0.0,1.60256256E9,,,,0,,3,0.91,20.6,3808.142578125,17.542715072631836,,,C,
Raw,1640343368443,418151014000000,18,,-1323960435429363162,-0.2791290283203125,63.826097175478935,-7.70577974071894,15.640014443793975,78,14,0.0,16399,471372371739871,46,25.1,-32.30104064941406,0.8029999732971191,16,0.0,0.0,1.56109798E9,,,,0,,5,2.1,20.8,-1555.264404296875,25.12859344482422,,,I,
Raw,1640343368443,418151014000000,18,,-1323960435429363162,-0.2791290283203125,63.826097175478935,-7.70577974071894,15.640014443793975,78,10,0.0,16399,471372314147718,80,20.7,-79.25469970703125,1.9375,16,0.0,0.0,1.56109798E9,,,,0,,5,2.1,16.4,-1555.264404296875,25.12859344482422,,,I,
Raw,1640343368443,418151014000000,18,,-1323960435429363162,-0.2791290283203125,63.826097175478935,-7.70577974071894,15.640014443793975,78,7,0.0,16399,471372312922622,35,26.6,-6.827003479003906,0.7444999814033508,16,0.0,0.0,1.56109798E9,,,,0,,5,2.1,22.3,-1555.264404296875,25.12859344482422,,,I,
OrientationDeg,1640343369112,950558440870039,139,2,-23
OrientationDeg,1640343369123,950558450581810,139,2,-23
OrientationDeg,1640343369133,950558460294414,139,2,-23
OrientationDeg,1640343369142,950558470007799,139,2,-23
OrientationDeg,1640343369152,950558479720351,139,2,-23
OrientationDeg,1640343369161,950558489432122,139,2,-23
OrientationDeg,1640343369171,950558499144726,139,2,-23
OrientationDeg,1640343369180,950558508858112,139,2,-23
OrientationDeg,1640343369190,950558518570664,139,2,-23
OrientationDeg,1640343369200,950558528282435,139,2,-23
OrientationDeg,1640343369209,950558537995039,139,2,-23
OrientationDeg,1640343369220,950558547708424,139,2,-23
OrientationDeg,1640343369230,950558557420976,139,2,-23
OrientationDeg,1640343369240,950558567132695,139,2,-23
OrientationDeg,1640343369249,950558576845351,139,2,-23
OrientationDeg,1640343369259,950558586558685,139,2,-23
OrientationDeg,1640343369269,950558596271289,139,2,-23
OrientationDeg,1640343369278,950558605983008,139,2,-23
OrientationDeg,1640343369288,950558615695664,139,2,-23
OrientationDeg,1640343369297,950558625408997,139,2,-23
OrientationDeg,1640343369307,950558635121601,139,1,-23
OrientationDeg,1640343369316,950558644833320,139,1,-23
OrientationDeg,1640343369326,950558654545976,139,1,-23
OrientationDeg,1640343369336,950558664259310,139,1,-23
OrientationDeg,1640343369345,950558673971914,139,1,-23
OrientationDeg,1640343369355,950558683683633,139,1,-23
OrientationDeg,1640343369366,950558693396289,139,1,-23
OrientationDeg,1640343369376,950558703109622,139,1,-23
OrientationDeg,1640343369385,950558712822226,139,1,-23
OrientationDeg,1640343369395,950558722533945,139,1,-23
OrientationDeg,1640343369405,950558732246601,139,1,-23
OrientationDeg,1640343369414,950558741959935,139,1,-23
OrientationDeg,1640343369424,950558751672539,139,1,-23
OrientationDeg,1640343369434,950558761384258,139,1,-23
OrientationDeg,1640343369444,950558771096862,139,1,-23
OrientationDeg,1640343369452,950558780810247,139,1,-23
OrientationDeg,1640343369462,950558790522851,139,1,-23
OrientationDeg,1640343369472,950558800234570,139,1,-23
OrientationDeg,1640343369481,950558809947174,139,2,-23
OrientationDeg,1640343369491,950558819660560,139,2,-23
OrientationDeg,1640343369501,950558829373112,139,2,-23
OrientationDeg,1640343369511,950558839084883,139,2,-23
OrientationDeg,1640343369520,950558848797487,139,2,-23
Fix,GPS,44.4282443,8.7447780,92.277954,0.000000,4.834037,0.000000,1640343369000,0.560803,0.0,950558436404654
OrientationDeg,1640343369530,950558858510872,139,1,-23
OrientationDeg,1640343369540,950558868223424,139,1,-23
OrientationDeg,1640343369550,950558877935195,139,1,-23
OrientationDeg,1640343369560,950558887647799,139,1,-23
OrientationDeg,1640343369570,950558897361185,139,1,-23
OrientationDeg,1640343369579,950558907073737,139,1,-23
OrientationDeg,1640343369588,950558916785456,139,1,-23
OrientationDeg,1640343369598,950558926498112,139,1,-23
OrientationDeg,1640343369609,950558936211445,139,1,-23
OrientationDeg,1640343369617,950558945924049,139,1,-23
OrientationDeg,1640343369627,950558955635768,139,1,-23
OrientationDeg,1640343369637,950558965348424,139,1,-23
OrientationDeg,1640343369648,950558975061758,139,1,-23
OrientationDeg,1640343369657,950558984774362,139,1,-23
OrientationDeg,1640343369667,950558994486081,139,1,-23
OrientationDeg,1640343369676,950559004198737,139,1,-23
OrientationDeg,1640343369685,950559013912070,139,1,-23
OrientationDeg,1640343369696,950559023624674,139,1,-23
OrientationDeg,1640343369705,950559033336393,139,1,-23
OrientationDeg,1640343369715,950559043048997,139,1,-23
OrientationDeg,1640343369725,950559052762383,139,1,-23
OrientationDeg,1640343369735,950559062474987,139,1,-23
OrientationDeg,1640343369745,950559072186706,139,1,-23
OrientationDeg,1640343369753,950559081899310,139,1,-23
OrientationDeg,1640343369763,950559091612695,139,1,-23
OrientationDeg,1640343369774,950559101325247,139,1,-23
OrientationDeg,1640343369783,950559111037018,139,1,-23
OrientationDeg,1640343369792,950559120749622,139,1,-23
OrientationDeg,1640343369803,950559130463008,139,1,-23
OrientationDeg,1640343369812,950559140175560,139,1,-23
OrientationDeg,1640343369822,950559149887331,139,1,-23
OrientationDeg,1640343369831,950559159599935,139,1,-23
OrientationDeg,1640343369842,950559169313268,139,1,-23
OrientationDeg,1640343369852,950559179025872,139,1,-23
OrientationDeg,1640343369861,950559188737591,139,1,-23
OrientationDeg,1640343369870,950559198450247,139,1,-23
OrientationDeg,1640343369881,950559208163581,139,1,-23
OrientationDeg,1640343369890,950559217876185,139,1,-23
OrientationDeg,1640343369899,950559227587903,139,1,-23
OrientationDeg,1640343369909,950559237300508,139,1,-23
OrientationDeg,1640343369920,950559247013893,139,1,-23
OrientationDeg,1640343369929,950559256726445,139,1,-23
OrientationDeg,1640343369939,950559266438216,139,1,-23
OrientationDeg,1640343369949,950559276150820,139,1,-23
OrientationDeg,1640343369957,950559285864206,139,1,-23
OrientationDeg,1640343369967,950559295576758,139,1,-23
OrientationDeg,1640343369977,950559305288528,139,1,-23
OrientationDeg,1640343369988,950559315001133,139,1,-23
OrientationDeg,1640343369996,950559324714518,139,1,-23
OrientationDeg,1640343370007,950559334427070,139,1,-23
OrientationDeg,1640343370016,950559344138789,139,1,-23
OrientationDeg,1640343370025,950559353851445,139,1,-23
OrientationDeg,1640343370035,950559363564778,139,1,-23
OrientationDeg,1640343370046,950559373277383,139,1,-23
OrientationDeg,1640343370055,950559382989101,139,1,-23
OrientationDeg,1640343370065,950559392701758,139,1,-23
OrientationDeg,1640343370075,950559402415091,139,1,-23
OrientationDeg,1640343370084,950559412127695,139,1,-23
Status,1640343369000,26,0,1,5,1575420032,23,40,271,00,59,00,1,1,1,23.4
Status,1640343369000,26,1,1,7,1575420032,26,30,54,00,35,00,1,1,1,26.3
Status,1640343369000,26,2,1,9,1575420032,22,50,104,00,7,00,1,1,1,22.5
Status,1640343369000,26,3,1,13,1575420032,27,90,296,00,48,00,1,1,1,27.9
Status,1640343369000,26,4,1,14,1575420032,41,70,142,00,44,00,1,1,1,41.7
Status,1640343369000,26,5,1,20,1575420032,36,20,210,00,54,00,1,1,1,36.2
Status,1640343369000,26,6,1,30,1575420032,24,10,53,00,66,00,1,1,1,24.1
Status,1640343369000,26,7,1,2,1575420032,0,00,223,00,2,00,0,1,1,0.0
Status,1640343369000,26,8,1,8,1575420032,0,00,49,00,4,00,0,1,1,0.0
Status,1640343369000,26,9,1,15,1575420032,0,00,295,00,18,00,0,1,1,0.0
Status,1640343369000,26,10,1,18,1575420032,0,00,323,00,8,00,0,1,1,0.0
Status,1640343369000,26,11,3,6,1599750016,14,40,341,00,71,00,0,1,0,14.4
Status,1640343369000,26,12,3,9,1600875008,27,40,205,00,23,00,0,1,0,27.4
Status,1640343369000,26,13,3,15,1602000000,24,40,36,00,40,00,0,1,0,24.4
Status,1640343369000,26,14,3,5,1602562560,24,90,120,00,37,00,1,1,0,24.9
Status,1640343369000,26,15,3,22,1600312448,0,00,293,00,4,00,0,1,0,0.0
Status,1640343369000,26,16,3,23,1603687552,0,00,351,00,6,00,0,1,0,0.0
Status,1640343369000,26,17,3,7,1604812544,0,00,316,00,20,00,0,1,0,0.0
Status,1640343369000,26,18,5,14,1561097984,24,40,264,00,80,00,1,1,0,24.4
Status,1640343369000,26,19,5,10,1561097984,20,70,66,00,30,00,1,1,0,20.7
Status,1640343369000,26,20,5,7,1561097984,25,60,53,00,24,00,1,1,0,25.6
Status,1640343369000,26,21,5,5,1561097984,24,10,120,00,17,00,1,1,0,24.1
Status,1640343369000,26,22,5,21,1561097984,0,00,136,00,15,00,0,1,0,0.0
Status,1640343369000,26,23,5,24,1561097984,0,00,205,00,58,00,0,1,0,0.0
Status,1640343369000,26,24,5,25,1561097984,0,00,220,00,4,00,0,1,0,0.0
Status,1640343369000,26,25,5,26,1561097984,0,00,64,00,64,00,0,1,0,0.0
OrientationDeg,1640343370093,950559421839414,139,1,-23
OrientationDeg,1640343370103,950559431552018,139,1,-23
OrientationDeg,1640343370113,950559441265403,139,1,-23
Fix,GPS,44.4282437,8.7447784,92.126160,0.000000,5.442081,0.000000,1640343370000,0.56850684,0.0,950559433579601
Raw,1640343369443,418152014000000,18,,-1323960435429363174,-0.7663021087646484,68.75934195704758,-9.383580965350564,15.854466137459367,78,5,0.0,16399,471387374003017,53,23.4,-49.72373962402344,0.9375,16,0.0,0.0,1.57542003E9,,,,0,,1,3.87,19.9,0.0,0.0,,,C,
Raw,1640343369443,418152014000000,18,,-1323960435429363174,-0.7663021087646484,68.75934195704758,-9.383580965350564,15.854466137459367,78,7,0.0,16399,471387368366240,35,26.3,465.3726806640625,0.7384999990463257,16,0.0,0.0,1.57542003E9,,,,0,,1,3.87,22.8,0.0,0.0,,,C,
Raw,1640343369443,418152014000000,18,,-1323960435429363174,-0.7663021087646484,68.75934195704758,-9.383580965350564,15.854466137459367,78,13,0.0,16399,471387372603658,27,27.9,-386.59112548828125,0.684499979019165,16,0.0,0.0,1.57542003E9,,,,0,,1,3.87,24.4,0.0,0.0,,,C,
Raw,1640343369443,418152014000000,18,,-1323960435429363174,-0.7663021087646484,68.75934195704758,-9.383580965350564,15.854466137459367,78,14,0.0,16399,471387370893709,6,41.7,-441.59429931640625,0.03530000150203705,16,-0.0,1902.9177342976868,1.57542003E9,,,,0,,1,3.87,38.2,0.0,0.0,,,C,
Raw,1640343369443,418152014000000,18,,-1323960435429363174,-0.7663021087646484,68.75934195704758,-9.383580965350564,15.854466137459367,78,20,0.0,16399,471387373837603,12,36.2,350.7754821777344,0.04350000247359276,16,-0.0,1902.9177342976868,1.57542003E9,,,,0,,1,3.87,32.7,0.0,0.0,,,C,
Raw,1640343369443,418152014000000,18,,-1323960435429363174,-0.7663021087646484,68.75934195704758,-9.383580965350564,15.854466137459367,78,30,0.0,16399,471387373846978,46,24.1,244.60348510742188,0.8659999966621399,16,0.0,0.0,1.57542003E9,,,,0,,1,3.87,20.6,0.0,0.0,,,C,
Raw,1640343369443,418152014000000,18,,-1323960435429363174,-0.7663021087646484,68.75934195704758,-9.383580965350564,15.854466137459367,78,6,0.0,49359,50169378744072,181,14.4,-239.73089599609375,10.343501091003418,16,0.0,0.0,1.59975002E9,,,,0,,3,1.01,10.4,3808.142578125,17.542715072631836,,,C,
Raw,1640343369443,418152014000000,18,,-1323960435429363174,-0.7663021087646484,68.75934195704758,-9.383580965350564,15.854466137459367,78,9,0.0,49359,50169369132130,31,27.4,-752.873046875,0.8799999356269836,16,0.0,0.0,1.60087501E9,,,,0,,3,1.01,23.4,3808.142578125,17.542715072631836,,,C,
Raw,1640343369443,418152014000000,18,,-1323960435429363174,-0.7663021087646484,68.75934195704758,-9.383580965350564,15.854466137459367,78,15,0.0,49359,50169373550977,46,24.4,586.794189453125,1.065999984741211,16,0.0,0.0,1.602E9,,,,0,,3,1.01,20.4,3808.142578125,17.542715072631836,,,C,
Raw,1640343369443,418152014000000,18,,-1323960435429363174,-0.7663021087646484,68.75934195704758,-9.383580965350564,15.854466137459367,78,5,0.0,49359,50169373184911,46,24.9,532.0196533203125,1.065999984741211,16,0.0,0.0,1.60256256E9,,,,0,,3,1.01,20.9,3808.142578125,17.542715072631836,,,C,
Raw,1640343369443,418152014000000,18,,-1323960435429363174,-0.7663021087646484,68.75934195704758,-9.383580965350564,15.854466137459367,78,14,0.0,16399,471373371739933,46,24.4,-31.590496063232422,0.8629999756813049,16,0.0,0.0,1.56109798E9,,,,0,,5,2.14,20.099999999999998,-1555.264404296875,25.12859344482422,,,I,
Raw,1640343369443,418152014000000,18,,-1323960435429363174,-0.7663021087646484,68.75934195704758,-9.383580965350564,15.854466137459367,78,7,0.0,16399,471373312922624,40,25.6,-6.078049659729004,0.8044999837875366,16,0.0,0.0,1.56109798E9,,,,0,,5,2.14,21.3,-1555.264404296875,25.12859344482422,,,I,
Raw,1640343369443,418152014000000,18,,-1323960435429363174,-0.7663021087646484,68.75934195704758,-9.383580965350564,15.854466137459367,78,5,0.0,16399,471373311057079,53,24.1,-7.26869535446167,7.626299858093262,16,0.0,0.0,1.56109798E9,,,,0,,5,2.14,19.8,-1555.264404296875,25.12859344482422,,,I,
OrientationDeg,1640343370122,950559450977956,139,1,-23
OrientationDeg,1640343370132,950559460689726,139,1,-23
OrientationDeg,1640343370142,950559470402331,139,1,-23
OrientationDeg,1640343370153,950559480115716,139,1,-23
OrientationDeg,1640343370162,950559489828268,139,1,-23
OrientationDeg,1640343370172,950559499539987,139,1,-23
OrientationDeg,1640343370182,950559509252643,139,1,-23
OrientationDeg,1640343370191,950559518965976,139,1,-23
OrientationDeg,1640343370201,950559528678581,139,1,-23
OrientationDeg,1640343370211,950559538390299,139,1,-23
OrientationDeg,1640343370221,950559548102903,139,1,-23
OrientationDeg,1640343370229,950559557816289,139,1,-23
OrientationDeg,1640343370239,950559567528841,139,1,-23
OrientationDeg,1640343370249,950559577240612,139,1,-23
OrientationDeg,1640343370258,950559586953216,139,1,-23
OrientationDeg,1640343370268,950559596666601,139,1,-23
OrientationDeg,1640343370278,950559606379153,139,1,-23
OrientationDeg,1640343370288,950559616090872,139,1,-23
OrientationDeg,1640343370297,950559625803528,139,1,-23
OrientationDeg,1640343370307,950559635516862,139,1,-23
OrientationDeg,1640343370317,950559645229466,139,1,-23
OrientationDeg,1640343370326,950559654941185,139,1,-23
OrientationDeg,1640343370337,950559664653789,139,1,-23
OrientationDeg,1640343370347,950559674367174,139,1,-23
OrientationDeg,1640343370357,950559684079726,139,1,-23
OrientationDeg,1640343370366,950559693791497,139,1,-23
OrientationDeg,1640343370376,950559703504101,139,1,-23
OrientationDeg,1640343370386,950559713217487,139,1,-23
OrientationDeg,1640343370395,950559722930039,139,1,-23
OrientationDeg,1640343370405,950559732641758,139,1,-23
OrientationDeg,1640343370414,950559742354414,139,1,-23
OrientationDeg,1640343370424,950559752067747,139,1,-23
OrientationDeg,1640343370433,950559761780351,139,1,-23
OrientationDeg,1640343370443,950559771492070,139,1,-23
OrientationDeg,1640343370453,950559781204674,139,1,-23
OrientationDeg,1640343370462,950559790918060,139,1,-23
OrientationDeg,1640343370472,950559800630612,139,1,-23
OrientationDeg,1640343370482,950559810342383,139,1,-23
OrientationDeg,1640343370492,950559820054987,139,1,-23
OrientationDeg,1640343370501,950559829768372,139,1,-23
OrientationDeg,1640343370512,950559839480924,139,1,-23
OrientationDeg,1640343370522,950559849192643,139,1,-23
OrientationDeg,1640343370531,950559858905299,139,1,-23
OrientationDeg,1640343370541,950559868618633,139,1,-23
OrientationDeg,1640343370550,950559878331237,139,1,-23
OrientationDeg,1640343370560,950559888042956,139,1,-23
OrientationDeg,1640343370569,950559897755560,139,1,-23
OrientationDeg,1640343370579,950559907468945,139,1,-23
OrientationDeg,1640343370589,950559917181497,139,1,-23
OrientationDeg,1640343370598,950559926893268,139,1,-23
OrientationDeg,1640343370609,950559936605872,139,1,-23
OrientationDeg,1640343370619,950559946319258,139,1,-23
OrientationDeg,1640343370629,950559956031810,139,1,-23
OrientationDeg,1640343370637,950559965743528,139,1,-23
OrientationDeg,1640343370648,950559975456185,139,1,-23
OrientationDeg,1640343370657,950559985169518,139,1,-23
OrientationDeg,1640343370666,950559994882070,139,1,-23
OrientationDeg,1640343370677,950560004593841,139,1,-23
OrientationDeg,1640343370687,950560014306445,139,1,-23
OrientationDeg,1640343370697,950560024019831,139,1,-23
OrientationDeg,1640343370705,950560033732383,139,1,-23
OrientationDeg,1640343370716,950560043444101,139,1,-23
OrientationDeg,1640343370726,950560053156758,139,1,-23
OrientationDeg,1640343370735,950560062870091,139,1,-23
OrientationDeg,1640343370744,950560072582695,139,1,-23
OrientationDeg,1640343370754,950560082294414,139,1,-23
OrientationDeg,1640343370764,950560092007018,139,1,-23
OrientationDeg,1640343370774,950560101720403,139,1,-23
OrientationDeg,1640343370783,950560111432956,139,1,-23
OrientationDeg,1640343370794,950560121144674,139,1,-23
OrientationDeg,1640343370802,950560130857331,139,1,-23
OrientationDeg,1640343370812,950560140570664,139,1,-23
OrientationDeg,1640343370823,950560150283268,139,1,-23
OrientationDeg,1640343370831,950560159994987,139,1,-23
OrientationDeg,1640343370842,950560169707591,139,1,-23
OrientationDeg,1640343370852,950560179420976,139,1,-23
OrientationDeg,1640343370861,950560189133528,139,1,-23
OrientationDeg,1640343370870,950560198845299,139,1,-23
OrientationDeg,1640343370880,950560208557903,139,1,-23
OrientationDeg,1640343370890,950560218271289,139,1,-23
OrientationDeg,1640343370899,950560227983841,139,1,-23
OrientationDeg,1640343370910,950560237695560,139,1,-23
OrientationDeg,1640343370920,950560247408164,139,1,-23
OrientationDeg,1640343370930,950560257121549,139,1,-23
OrientationDeg,1640343370938,950560266834101,139,1,-23
OrientationDeg,1640343370948,950560276545872,139,1,-23
OrientationDeg,1640343370958,950560286258476,139,1,-23
OrientationDeg,1640343370967,950560295971810,139,1,-23
OrientationDeg,1640343370977,950560305684414,139,1,-23
OrientationDeg,1640343370988,950560315396133,139,1,-23
OrientationDeg,1640343370997,950560325108737,139,1,-23
OrientationDeg,1640343371006,950560334822122,139,1,-23
OrientationDeg,1640343371017,950560344534674,139,1,-23
OrientationDeg,1640343371026,950560354246445,139,1,-23
OrientationDeg,1640343371035,950560363959049,139,1,-23
OrientationDeg,1640343371045,950560373672383,139,1,-23
OrientationDeg,1640343371055,950560383384987,139,1,-23
OrientationDeg,1640343371066,950560393096706,139,1,-23
OrientationDeg,1640343371074,950560402809362,139,1,-23
OrientationDeg,1640343371085,950560412522695,139,1,-23
Status,1640343370000,26,0,1,5,1575420032,23,40,271,00,59,00,1,1,1,23.4
Status,1640343370000,26,1,1,7,1575420032,27,40,54,00,35,00,1,1,1,27.4
Status,1640343370000,26,2,1,9,1575420032,22,50,104,00,7,00,1,1,1,22.5
Status,1640343370000,26,3,1,13,1575420032,26,60,296,00,48,00,1,1,1,26.6
Status,1640343370000,26,4,1,14,1575420032,41,70,142,00,44,00,1,1,1,41.7
Status,1640343370000,26,5,1,20,1575420032,36,50,210,00,54,00,1,1,1,36.5
Status,1640343370000,26,6,1,30,1575420032,23,50,53,00,66,00,1,1,1,23.5
Status,1640343370000,26,7,1,2,1575420032,0,00,223,00,2,00,0,1,1,0.0
Status,1640343370000,26,8,1,8,1575420032,0,00,49,00,4,00,0,1,1,0.0
Status,1640343370000,26,9,1,15,1575420032,0,00,295,00,18,00,0,1,1,0.0
Status,1640343370000,26,10,1,18,1575420032,0,00,323,00,8,00,0,1,1,0.0
Status,1640343370000,26,11,3,6,1599750016,14,40,341,00,71,00,1,1,0,14.4
Status,1640343370000,26,12,3,9,1600875008,27,10,205,00,23,00,0,1,0,27.1
Status,1640343370000,26,13,3,15,1602000000,23,40,36,00,40,00,0,1,0,23.4
Status,1640343370000,26,14,3,5,1602562560,24,60,120,00,37,00,1,1,0,24.6
Status,1640343370000,26,15,3,22,1600312448,0,00,293,00,4,00,0,1,0,0.0
Status,1640343370000,26,16,3,23,1603687552,0,00,351,00,6,00,0,1,0,0.0
Status,1640343370000,26,17,3,7,1604812544,0,00,316,00,20,00,0,1,0,0.0
Status,1640343370000,26,18,5,14,1561097984,26,90,264,00,80,00,1,1,0,26.9
Status,1640343370000,26,19,5,10,1561097984,20,90,66,00,30,00,1,1,0,20.9
Status,1640343370000,26,20,5,7,1561097984,26,60,53,00,24,00,1,1,0,26.6
Status,1640343370000,26,21,5,5,1561097984,24,10,120,00,17,00,1,1,0,24.1
Status,1640343370000,26,22,5,21,1561097984,0,00,136,00,15,00,0,1,0,0.0
Status,1640343370000,26,23,5,24,1561097984,0,00,205,00,58,00,0,1,0,0.0
Status,1640343370000,26,24,5,25,1561097984,0,00,220,00,4,00,0,1,0,0.0
Status,1640343370000,26,25,5,26,1561097984,0,00,64,00,64,00,0,1,0,0.0
OrientationDeg,1640343371094,950560422235247,139,1,-23
OrientationDeg,1640343371104,950560431947018,139,1,-23
