# 
# Header Description:
# 
# Version: v3.0.0.10 Platform: 9 Manufacturer: Xiaomi Model: MI 8
# 
# Raw,utcTimeMillis,TimeNanos,LeapSecond,TimeUncertaintyNanos,FullBiasNanos,BiasNanos,BiasUncertaintyNanos,DriftNanosPerSecond,DriftUncertaintyNanosPerSecond,HardwareClockDiscontinuityCount,Svid,TimeOffsetNanos,State,ReceivedSvTimeNanos,ReceivedSvTimeUncertaintyNanos,Cn0DbHz,PseudorangeRateMetersPerSecond,PseudorangeRateUncertaintyMetersPerSecond,AccumulatedDeltaRangeState,AccumulatedDeltaRangeMeters,AccumulatedDeltaRangeUncertaintyMeters,CarrierFrequencyHz,CarrierCycles,CarrierPhase,CarrierPhaseUncertainty,MultipathIndicator,SnrInDb,ConstellationType,AgcDb,BasebandCn0DbHz,FullInterSignalBiasNanos,FullInterSignalBiasUncertaintyNanos,SatelliteInterSignalBiasNanos,SatelliteInterSignalBiasUncertaintyNanos,CodeType,ChipsetElapsedRealtimeNanos
# 
# UncalAccel,utcTimeMillis,elapsedRealtimeNanos,UncalAccelXMps2,UncalAccelYMps2,UncalAccelZMps2,BiasXMps2,BiasYMps2,BiasZMps2
# 
# UncalGyro,utcTimeMillis,elapsedRealtimeNanos,UncalGyroXRadPerSec,UncalGyroYRadPerSec,UncalGyroZRadPerSec,DriftXRadPerSec,DriftYRadPerSec,DriftZRadPerSec
# 
# UncalMag,utcTimeMillis,elapsedRealtimeNanos,UncalMagXMicroT,UncalMagYMicroT,UncalMagZMicroT,BiasXMicroT,BiasYMicroT,BiasZMicroT
# 
# OrientationDeg,utcTimeMillis,elapsedRealtimeNanos,yawDeg,rollDeg,pitchDeg
# 
# Fix,Provider,LatitudeDegrees,LongitudeDegrees,AltitudeMeters,SpeedMps,AccuracyMeters,BearingDegrees,UnixTimeMillis,SpeedAccuracyMps,BearingAccuracyDegrees,elapsedRealtimeNanos
# 
# Nav,Svid,Type,Status,MessageId,Sub-messageId,Data(Bytes)
# 
# Status,UnixTimeMillis,SignalCount,SignalIndex,ConstellationType,Svid,CarrierFrequencyHz,Cn0DbHz,AzimuthDegrees,ElevationDegrees,UsedInFix,HasAlmanacData,HasEphemerisData,BasebandCn0DbHz
# 
OrientationDeg,1640342818925,109414717365,153,-2,-28
OrientationDeg,1640342818939,109428048824,153,-2,-28
OrientationDeg,1640342818952,109441379397,153,-2,-28
OrientationDeg,1640342818965,109454715490,153,-2,-28
OrientationDeg,1640342818979,109468048719,153,-2,-28
OrientationDeg,1640342818992,109481379084,153,-2,-28
OrientationDeg,1640342819005,109494714188,153,-2,-28
OrientationDeg,1640342819019,109508046636,153,-2,-28
OrientationDeg,1640342819031,109521378251,153,-2,-28
OrientationDeg,1640342819045,109534713824,153,-2,-28
OrientationDeg,1640342819059,109548045022,153,-2,-27
OrientationDeg,1640342819072,109561375594,153,-2,-27
OrientationDeg,1640342819085,109574711167,153,-2,-27
OrientationDeg,1640342819099,109588043928,153,-2,-27
OrientationDeg,1640342819112,109601374761,153,-2,-28
OrientationDeg,1640342819125,109614710594,153,-2,-28
OrientationDeg,1640342819139,109628043303,153,-2,-28
OrientationDeg,1640342819152,109641376844,153,-2,-27
Fix,GPS,44.4281570,8.7448388,56.355839,0.054526,4.000000,121.184792,1640342819000,0.014683428,149.25555,109639625477
OrientationDeg,1640342819165,109654709553,153,-2,-27
Status,1640342819000,33,0,6,8,1176450048,24,00,348,00,79,00,1,1,1,
Status,1640342819000,33,1,6,8,1575449984,31,00,348,00,79,00,1,1,1,
Status,1640342819000,33,2,1,30,1575449984,41,00,55,00,70,00,1,1,1,
Status,1640342819000,33,3,1,30,1176450048,26,00,55,00,70,00,1,1,1,
Status,1640342819000,33,4,5,26,1575449984,36,00,71,00,68,00,1,1,1,
Status,1640342819000,33,5,3,6,1599750016,16,00,338,00,67,00,1,1,1,
Status,1640342819000,33,6,1,5,1575449984,32,00,280,00,59,00,1,1,1,
Status,1640342819000,33,7,1,20,1575449984,42,00,216,00,58,00,1,1,1,
Status,1640342819000,33,8,6,2,1575449984,35,00,130,00,57,00,1,1,1,
Status,1640342819000,33,9,6,2,1176450048,35,00,130,00,57,00,1,1,1,
Status,1640342819000,33,10,5,24,1575449984,41,00,204,00,55,00,1,1,1,
Status,1640342819000,33,11,3,15,1602000000,31,00,40,00,45,00,1,1,1,
Status,1640342819000,33,12,1,13,1575449984,18,00,295,00,45,00,1,1,1,
Status,1640342819000,33,13,3,5,1602562560,40,00,118,00,42,00,1,1,1,
Status,1640342819000,33,14,1,14,1575449984,43,00,146,00,41,00,1,1,1,
Status,1640342819000,33,15,6,3,1176450048,37,00,104,00,39,00,1,1,1,
Status,1640342819000,33,16,6,3,1575449984,42,00,104,00,39,00,1,1,1,
Status,1640342819000,33,17,1,7,1575449984,38,00,55,00,39,00,1,1,1,
Status,1640342819000,33,18,6,25,1575449984,31,00,54,00,37,00,1,1,1,
Status,1640342819000,33,19,6,25,1176450048,24,00,54,00,37,00,1,1,1,
Status,1640342819000,33,20,5,10,1575449984,33,00,68,00,31,00,1,1,1,
Status,1640342819000,33,21,6,7,1575449984,21,00,298,00,30,00,1,1,1,
Status,1640342819000,33,22,5,7,1575449984,23,00,56,00,25,00,1,1,1,
Status,1640342819000,33,23,6,30,1176450048,23,00,185,00,23,00,1,1,1,
Status,1640342819000,33,24,6,30,1575449984,26,00,185,00,23,00,1,1,1,
Status,1640342819000,33,25,3,9,1600875008,28,00,205,00,20,00,1,1,1,
Status,1640342819000,33,26,5,21,1575449984,27,00,136,00,19,00,1,1,1,
Status,1640342819000,33,27,5,5,1575449984,22,00,122,00,18,00,1,1,1,
Status,1640342819000,33,28,3,7,1604812544,8,00,316,00,17,00,0,1,1,
Status,1640342819000,33,29,6,26,1575449984,15,00,296,00,15,00,1,1,1,
Status,1640342819000,33,30,1,9,1575449984,25,00,102,00,11,00,1,1,1,
Status,1640342819000,33,31,1,9,1176450048,26,00,102,00,11,00,1,1,1,
Status,1640342819000,33,32,6,13,1575449984,18,00,244,00,10,00,1,1,1,
Raw,1640342819000,75092000000,,,-1324377961908391353,0.0,10.77345150907186,,,0,2,0.0,16431,470836916413311,75,17.507457733154297,521.3290722080383,1.1643127644840314,20,22911.042331189095,3.4028234663852886E38,1.57542003E9,,,,0,,1,48.59579086303711,,,,,,,
Raw,1640342819000,75092000000,,,-1324377961908391353,0.0,10.77345150907186,,,0,5,0.0,16431,470836930880594,24,31.393836975097656,-109.07961673867976,0.004614531062543392,17,-5440.983623318192,0.002307265531271696,1.57542003E9,,,,0,,1,48.59579086303711,,,,,,,
Raw,1640342819000,75092000000,,,-1324377961908391353,0.0,10.77345150907186,,,0,7,0.0,16431,470836926235568,14,38.155731201171875,455.43238239812126,0.0022470313124358654,17,22428.950220283976,0.0011235156562179327,1.57542003E9,,,,0,,1,48.59579086303711,,,,,,,
Raw,1640342819000,75092000000,,,-1324377961908391353,0.0,10.77345150907186,,,0,8,0.0,16392,470836916158049,1000000000,8.544332504272461,-175.44130244504697,2.99792458E8,18,-178.44744551496444,3.4028234663852886E38,1.57542003E9,,,,0,,1,48.59579086303711,,,,,,,
Raw,1640342819000,75092000000,,,-1324377961908391353,0.0,10.77345150907186,,,0,9,0.0,16431,470836917996870,42,24.509166717529297,599.2309208278384,0.010194385424256325,17,31985.71743866825,0.1002440291113106,1.57542003E9,,,,0,,1,48.59579086303711,,,,,,,
Raw,1640342819000,75092000000,,,-1324377961908391353,0.0,10.77345150907186,,,0,13,0.0,16431,470836928901925,109,12.890024185180664,-401.516933763555,1.3706024242413646,20,-21437.62438400399,3.4028234663852886E38,1.57542003E9,,,,1,,1,48.59579086303711,,,,,,,
Raw,1640342819000,75092000000,,,-1324377961908391353,0.0,10.77345150907186,,,0,14,0.0,16431,470836927069237,12,42.71692657470703,-480.8968385584012,0.001400967710651457,17,-33743.43050823047,7.004838553257287E-4,1.57542003E9,,,,0,,1,48.59579086303711,,,,,,,
Raw,1640342819000,75092000000,,,-1324377961908391353,0.0,10.77345150907186,,,0,15,0.0,16392,470836920945046,1000000000,7.0,-625.4623604257026,2.99792458E8,22,-1124.5962237574877,3.4028234663852886E38,1.57542003E9,,,,0,,1,48.59579086303711,,,,,,,
Raw,1640342819000,75092000000,,,-1324377961908391353,0.0,10.77345150907186,,,0,18,0.0,16392,470836917405889,1000000000,7.0,-236.70666523955958,2.99792458E8,20,-1378.0547699517488,3.4028234663852886E38,1.57542003E9,,,,1,,1,48.59579086303711,,,,,,,
Raw,1640342819000,75092000000,,,-1324377961908391353,0.0,10.77345150907186,,,0,20,0.0,16431,470836931456397,14,40.739112854003906,297.3797032249531,0.0017592147924005987,17,20958.38387214088,8.796073962002993E-4,1.57542003E9,,,,0,,1,48.59579086303711,,,,,,,
Raw,1640342819000,75092000000,,,-1324377961908391353,0.0,10.77345150907186,,,0,28,0.0,16431,470836924442303,27,29.995201110839844,-596.0479860476189,0.005420750938355923,17,-42211.86302960749,0.0027103754691779613,1.57542003E9,,,,0,,1,48.59579086303711,,,,,,,
Raw,1640342819000,75092000000,,,-1324377961908391353,0.0,10.77345150907186,,,0,30,0.0,16431,470836931290031,14,40.25876998901367,212.1773840900605,0.001859242212958634,17,10418.32625078857,9.29621106479317E-4,1.57542003E9,,,,0,,1,48.59579086303711,,,,,,,
Raw,1640342819000,75092000000,,,-1324377961908391353,0.0,10.77345150907186,,,0,9,0.0,16393,470836917996832,17,26.35717010498047,599.2559529015707,0.011035292409360409,17,87538.68091055713,0.005517646204680204,1.17645005E9,,,,0,,1,11.110957145690918,,,,,,,
Raw,1640342819000,75092000000,,,-1324377961908391353,0.0,10.77345150907186,,,0,30,0.0,16392,470836931290036,1000000000,26.037782669067383,208.69238560589645,2.99792458E8,20,19303.325427688957,3.4028234663852886E38,1.17645005E9,,,,0,,1,11.110957145690918,,,,,,,
Raw,1640342819000,75092000000,,,-1324377961908391353,0.0,10.77345150907186,,,0,6,0.0,16393,285908,174,15.744461059570312,-287.87382219707,1.2433899215391664,20,-14171.47065203922,3.4028234663852886E38,1.59975002E9,,,,1,,3,61.16499710083008,,,,,,,
Raw,1640342819000,75092000000,,,-1324377961908391353,0.0,10.77345150907186,,,0,22,0.0,16392,49618920505677,1000000000,7.0,467.7844082896379,2.99792458E8,20,1786.2191102159723,3.4028234663852886E38,1.60031245E9,,,,0,,3,61.16499710083008,,,,,,,
Raw,1640342819000,75092000000,,,-1324377961908391353,0.0,10.77345150907186,,,0,9,0.0,32995,49618924757671,67,27.559267044067383,-772.6495828157058,0.007061469834297895,17,-39219.007814810524,0.0035307349171489477,1.60087501E9,,,,0,,3,61.16499710083008,,,,,,,
Raw,1640342819000,75092000000,,,-1324377961908391353,0.0,10.77345150907186,,,0,15,0.0,32995,49618931616123,52,30.707210540771484,542.8157424557721,0.004911258351057768,17,37039.24947730455,0.002455629175528884,1.602E9,,,,0,,3,61.16499710083008,,,,,,,
Raw,1640342819000,75092000000,,,-1324377961908391353,0.0,10.77345150907186,,,0,5,0.0,32995,49618931153378,33,39.270896911621094,493.05630870335153,0.0019428186351433396,17,23819.652534094275,9.714093175716698E-4,1.60256256E9,,,,0,,3,61.16499710083008,,,,,,,
Raw,1640342819000,75092000000,,,-1324377961908391353,0.0,10.77345150907186,,,0,103,0.0,16392,49618920156575,1000000000,11.570146560668945,-184.0217312869471,2.99792458E8,20,-888.4714422018254,3.4028234663852886E38,1.60368755E9,,,,0,,3,61.16499710083008,,,,,,,
Raw,1640342819000,75092000000,,,-1324377961908391353,0.0,10.77345150907186,,,0,7,0.0,16392,49618923906412,1000000000,8.228569030761719,-696.7938745068577,2.99792458E8,20,-1950.670864356145,3.4028234663852886E38,1.60481254E9,,,,0,,3,61.16499710083008,,,,,,,
Raw,1640342819000,75092000000,,,-1324377961908391353,0.0,10.77345150907186,,,0,2,0.0,16392,470822862584303,1000000000,7.0,9.3690798446097,2.99792458E8,20,461.35544901387993,3.4028234663852886E38,1.56109798E9,,,,0,,5,61.96491241455078,,,,,,,
Raw,1640342819000,75092000000,,,-1324377961908391353,0.0,10.77345150907186,,,0,5,0.0,16392,470822868092808,1000000000,19.751283645629883,12.741477143089341,2.99792458E8,20,706.5803807937211,3.4028234663852886E38,1.56109798E9,,,,0,,5,61.96491241455078,,,,,,,
Raw,1640342819000,75092000000,,,-1324377961908391353,0.0,10.77345150907186,,,0,7,0.0,16431,470822869925846,24,22.785320281982422,-14.51492262072049,0.9258063298620223,20,-567.7548341413233,3.4028234663852886E38,1.56109798E9,,,,0,,5,61.96491241455078,,,,,,,
Raw,1640342819000,75092000000,,,-1324377961908391353,0.0,10.77345150907186,,,0,10,0.0,16431,470822871015991,11,32.48387908935547,-87.11132934845136,0.004107633605599403,17,-3898.2780105686275,0.0020538168027997017,1.56109798E9,,,,0,,5,61.96491241455078,,,,,,,
Raw,1640342819000,75092000000,,,-1324377961908391353,0.0,10.77345150907186,,,0,21,0.0,16431,470822915369814,20,25.218303680419922,599.2496112789222,0.8173770550398727,20,29993.375977518044,3.4028234663852886E38,1.56109798E9,,,,0,,5,61.96491241455078,,,,,,,
Raw,1640342819000,75092000000,,,-1324377961908391353,0.0,10.77345150907186,,,0,24,0.0,16431,470822924675490,7,40.3441276550293,-377.1830840142611,0.0018579509342089295,17,-18689.70847606197,9.289754671044648E-4,1.56109798E9,,,,0,,5,61.96491241455078,,,,,,,
Raw,1640342819000,75092000000,,,-1324377961908391353,0.0,10.77345150907186,,,0,25,0.0,16392,470822909808007,1000000000,7.0,-629.8876265806243,2.99792458E8,20,-27036.90099783391,3.4028234663852886E38,1.56109798E9,,,,1,,5,61.96491241455078,,,,,,,
Raw,1640342819000,75092000000,,,-1324377961908391353,0.0,10.77345150907186,,,0,26,0.0,16431,470822928181188,8,35.734657287597656,178.36374195636563,0.0029966013971716166,17,8969.71096901815,0.0014983006985858083,1.56109798E9,,,,0,,5,61.96491241455078,,,,,,,
Raw,1640342819000,75092000000,,,-1324377961908391353,0.0,10.77345150907186,,,0,2,0.0,18474,470836920551597,1000000000,34.36764144897461,-230.75283499204636,2.99792458E8,20,-3890.84396722375,3.4028234663852886E38,1.57542003E9,,,,0,,6,48.59579086303711,,,,,,,
Raw,1640342819000,75092000000,,,-1324377961908391353,0.0,10.77345150907186,,,0,3,0.0,18474,470836915961818,1000000000,41.830711364746094,360.80145179964484,2.99792458E8,20,6420.29996320591,3.4028234663852886E38,1.57542003E9,,,,0,,6,48.59579086303711,,,,,,,
Raw,1640342819000,75092000000,,,-1324377961908391353,0.0,10.77345150907186,,,0,7,0.0,16392,470836913272667,1000000000,18.68373680114746,-414.74695948921,2.99792458E8,18,-412.5831645459061,3.4028234663852886E38,1.57542003E9,,,,0,,6,48.59579086303711,,,,,,,
Raw,1640342819000,75092000000,,,-1324377961908391353,0.0,10.77345150907186,,,0,8,0.0,18474,470836928499661,1000000000,30.625473022460938,-60.95211945722559,2.99792458E8,20,-1031.0938701829127,3.4028234663852886E38,1.57542003E9,,,,0,,6,48.59579086303711,,,,,,,
Raw,1640342819000,75092000000,,,-1324377961908391353,0.0,10.77345150907186,,,0,13,0.0,16392,470836907920276,1000000000,17.059558868408203,527.2521941622244,2.99792458E8,18,3.6662574382490667,3.4028234663852886E38,1.57542003E9,,,,0,,6,48.59579086303711,,,,,,,
Raw,1640342819000,75092000000,,,-1324377961908391353,0.0,10.77345150907186,,,0,25,0.0,18440,470836915229602,1000000000,30.92911148071289,295.0287182124471,2.99792458E8,20,5242.680834587774,3.4028234663852886E38,1.57542003E9,,,,0,,6,48.59579086303711,,,,,,,
Raw,1640342819000,75092000000,,,-1324377961908391353,0.0,10.77345150907186,,,0,26,0.0,16392,470836908574884,1000000000,15.023045539855957,210.15827206094252,2.99792458E8,18,1.5985336546511255,3.4028234663852886E38,1.57542003E9,,,,0,,6,48.59579086303711,,,,,,,
Raw,1640342819000,75092000000,,,-1324377961908391353,0.0,10.77345150907186,,,0,30,0.0,18440,470836912022885,1000000000,24.191591262817383,-585.7037434286704,2.99792458E8,20,-10413.783078590037,3.4028234663852886E38,1.57542003E9,,,,0,,6,48.59579086303711,,,,,,,
Raw,1640342819000,75092000000,,,-1324377961908391353,0.0,10.77345150907186,,,0,33,0.0,16392,470836904697788,1000000000,7.0,-185.83783202399331,2.99792458E8,18,-1.5016308087573536,3.4028234663852886E38,1.57542003E9,,,,0,,6,48.59579086303711,,,,,,,
Raw,1640342819000,75092000000,,,-1324377961908391353,0.0,10.77345150907186,,,0,2,0.0,18475,470836920551585,10,34.52324295043945,-230.80787501383747,0.004571475554257631,17,-5091.094091298927,0.0022857377771288157,1.17645005E9,,,,0,,6,11.110957145690918,,,,,,,
Raw,1640342819000,75092000000,,,-1324377961908391353,0.0,10.77345150907186,,,0,3,0.0,18475,470836915961810,8,36.648677825927734,360.80537168359297,0.003579189069569111,17,6840.22479666054,0.0017895945347845554,1.17645005E9,,,,0,,6,11.110957145690918,,,,,,,
Raw,1640342819000,75092000000,,,-1324377961908391353,0.0,10.77345150907186,,,0,8,0.0,16392,470836928499690,1000000000,23.506702423095703,-60.08634837601903,2.99792458E8,20,-1526.7508610538453,3.4028234663852886E38,1.17645005E9,,,,0,,6,11.110957145690918,,,,,,,
Raw,1640342819000,75092000000,,,-1324377961908391353,0.0,10.77345150907186,,,0,25,0.0,18475,470836915229583,33,23.282838821411133,295.0969316594901,0.01572173275053501,17,5586.1946012562785,0.007860866375267506,1.17645005E9,,,,0,,6,11.110957145690918,,,,,,,
Raw,1640342819000,75092000000,,,-1324377961908391353,0.0,10.77345150907186,,,0,30,0.0,18475,470836912022870,45,21.83668327331543,-584.9341380531205,0.018569840118288994,17,-11114.988338162277,0.009284920059144497,1.17645005E9,,,,0,,6,11.110957145690918,,,,,,,
OrientationDeg,1640342819179,109668041949,153,-2,-27
OrientationDeg,1640342819192,109681376480,153,-2,-27
OrientationDeg,1640342819205,109694708928,153,-2,-27
OrientationDeg,1640342819219,109708043459,153,-2,-27
OrientationDeg,1640342819232,109721373824,153,-2,-27
OrientationDeg,1640342819245,109734707053,153,-2,-27
OrientationDeg,1640342819259,109748040282,153,-2,-27
OrientationDeg,1640342819272,109761374553,153,-2,-27
OrientationDeg,1640342819285,109774708876,153,-2,-27
OrientationDeg,1640342819299,109788040751,153,-2,-27
OrientationDeg,1640342819312,109801372990,153,-2,-27
OrientationDeg,1640342819325,109814705178,153,-2,-27
OrientationDeg,1640342819339,109828037834,153,-2,-27
OrientationDeg,1640342819352,109841372105,153,-2,-27
OrientationDeg,1640342819365,109854705907,153,-2,-27
OrientationDeg,1640342819379,109868036740,153,-2,-27
OrientationDeg,1640342819392,109881369709,153,-2,-27
OrientationDeg,1640342819405,109894702678,153,-2,-27
OrientationDeg,1640342819419,109908035386,153,-2,-27
OrientationDeg,1640342819432,109921368407,153,-2,-27
OrientationDeg,1640342819444,109934702678,153,-2,-27
OrientationDeg,1640342819459,109948034344,153,-2,-27
OrientationDeg,1640342819471,109961367001,153,-2,-27
OrientationDeg,1640342819485,109974701011,153,-2,-27
OrientationDeg,1640342819499,109988032469,153,-2,-27
OrientationDeg,1640342819511,110001365647,153,-2,-27
OrientationDeg,1640342819525,110014699397,153,-2,-27
OrientationDeg,1640342819539,110028033147,153,-2,-27
OrientationDeg,1640342819552,110041364605,153,-2,-27
OrientationDeg,1640342819565,110054697834,153,-1,-27
OrientationDeg,1640342819579,110068032574,154,-1,-27
OrientationDeg,1640342819592,110081365074,154,-1,-28
OrientationDeg,1640342819605,110094696949,154,-1,-28
OrientationDeg,1640342819619,110108029969,154,-1,-28
OrientationDeg,1640342819631,110121362626,154,-1,-28
OrientationDeg,1640342819645,110134696688,154,-1,-28
OrientationDeg,1640342819659,110148028042,154,-1,-28
OrientationDeg,1640342819672,110161361532,154,-1,-28
OrientationDeg,1640342819685,110174697105,154,-1,-29
OrientationDeg,1640342819699,110188028042,154,-1,-29
OrientationDeg,1640342819712,110201361272,154,-1,-29
OrientationDeg,1640342819725,110214695803,154,-1,-29
OrientationDeg,1640342819739,110228027990,154,-1,-29
OrientationDeg,1640342819752,110241359865,154,-1,-29
OrientationDeg,1640342819765,110254692626,154,-2,-29
OrientationDeg,1640342819779,110268025855,154,-2,-29
OrientationDeg,1640342819792,110281360074,154,-2,-29
OrientationDeg,1640342819805,110294692261,154,-2,-29
OrientationDeg,1640342819819,110308024188,154,-2,-29
OrientationDeg,1640342819832,110321357157,154,-2,-29
OrientationDeg,1640342819845,110334691740,154,-2,-29
OrientationDeg,1640342819859,110348021532,154,-2,-29
OrientationDeg,1640342819872,110361355542,154,-2,-29
OrientationDeg,1640342819885,110374689344,154,-2,-29
OrientationDeg,1640342819899,110388021219,154,-2,-29
OrientationDeg,1640342819912,110401354761,154,-1,-30
OrientationDeg,1640342819925,110414689292,154,-1,-30
OrientationDeg,1640342819939,110428019605,154,-1,-30
OrientationDeg,1640342819952,110441353407,154,-1,-30
OrientationDeg,1640342819965,110454688928,154,-1,-30
OrientationDeg,1640342819979,110468031584,154,-1,-30
OrientationDeg,1640342819992,110481354397,154,-1,-30
OrientationDeg,1640342820005,110494688094,154,-1,-30
OrientationDeg,1640342820018,110507996324,154,-1,-30
OrientationDeg,1640342820032,110521351167,154,0,-30
OrientationDeg,1640342820045,110534687782,154,0,-30
OrientationDeg,1640342820058,110547994553,154,0,-30
OrientationDeg,1640342820071,110561350907,154,0,-30
OrientationDeg,1640342820085,110574685126,154,0,-30
OrientationDeg,1640342820098,110587994657,154,0,-30
OrientationDeg,1640342820112,110601349553,154,0,-30
Nav,9,769,1,4,15,124,-77,-93,-125,120,-76,-65,-46,-104,37,0
Nav,15,769,1,4,15,124,-77,-93,-125,120,-76,-65,-46,-104,37,0
Nav,5,769,1,4,15,124,-77,-93,-125,120,-76,-65,-46,-104,37,0
Nav,2,1537,1,24,0,0,-107,85,85,85,85,85,85,85,85,85,85,82,53,-64,-117,-52,-62,106,-59,-12,-4,-22,-86,-86,69,-79,79,-1,64
Nav,3,1537,1,24,0,0,-107,85,85,85,85,85,85,85,85,85,85,82,53,-64,-117,-52,-59,-113,3,-103,-15,-86,-86,-86,84,2,-25,-65,64
OrientationDeg,1640342820124,110614684865,154,0,-30
Nav,8,1537,1,24,0,0,-107,85,85,85,85,85,85,85,85,85,85,82,53,-64,-117,-52,-46,-17,121,126,-86,106,-86,-86,122,94,51,-65,64
OrientationDeg,1640342820138,110627994657,154,0,-30
OrientationDeg,1640342820152,110641350803,154,-1,-30
OrientationDeg,1640342820165,110654683511,154,-1,-30
Fix,GPS,44.4281563,8.7448403,56.637756,0.093123,4.000000,130.776718,1640342820000,0.014662261,180.0,110665425633
OrientationDeg,1640342820178,110667990751,154,-1,-29
Status,1640342820000,32,0,6,8,1176450048,26,00,348,00,79,00,1,1,1,
Status,1640342820000,32,1,6,8,1575449984,31,00,348,00,79,00,1,1,1,
Status,1640342820000,32,2,1,30,1575449984,41,00,55,00,70,00,1,1,1,
Status,1640342820000,32,3,1,30,1176450048,26,00,55,00,70,00,1,1,1,
Status,1640342820000,32,4,5,26,1575449984,36,00,71,00,68,00,1,1,1,
Status,1640342820000,32,5,3,6,1599750016,16,00,338,00,67,00,1,1,1,
Status,1640342820000,32,6,1,5,1575449984,32,00,280,00,59,00,1,1,1,
Status,1640342820000,32,7,1,20,1575449984,41,00,216,00,58,00,1,1,1,
Status,1640342820000,32,8,6,2,1575449984,36,00,130,00,57,00,1,1,1,
Status,1640342820000,32,9,6,2,1176450048,35,00,130,00,57,00,1,1,1,
Status,1640342820000,32,10,5,24,1575449984,41,00,204,00,55,00,1,1,1,
Status,1640342820000,32,11,3,15,1602000000,31,00,40,00,45,00,1,1,1,
Status,1640342820000,32,12,1,13,1575449984,18,00,295,00,45,00,1,1,1,
Status,1640342820000,32,13,3,5,1602562560,40,00,118,00,42,00,1,1,1,
Status,1640342820000,32,14,1,14,1575449984,43,00,146,00,41,00,1,1,1,
Status,1640342820000,32,15,6,3,1176450048,37,00,104,00,39,00,1,1,1,
Status,1640342820000,32,16,6,3,1575449984,42,00,104,00,39,00,1,1,1,
Status,1640342820000,32,17,1,7,1575449984,38,00,55,00,39,00,1,1,1,
Status,1640342820000,32,18,6,25,1575449984,31,00,54,00,37,00,1,1,1,
Status,1640342820000,32,19,6,25,1176450048,24,00,54,00,37,00,1,1,1,
Status,1640342820000,32,20,5,10,1575449984,33,00,68,00,31,00,1,1,1,
Status,1640342820000,32,21,6,7,1575449984,20,00,298,00,30,00,0,1,1,
Status,1640342820000,32,22,5,7,1575449984,23,00,56,00,25,00,1,1,1,
Status,1640342820000,32,23,6,30,1176450048,23,00,185,00,23,00,1,1,1,
Status,1640342820000,32,24,6,30,1575449984,25,00,185,00,23,00,1,1,1,
Status,1640342820000,32,25,3,9,1600875008,28,00,205,00,20,00,1,1,1,
Status,1640342820000,32,26,5,21,1575449984,26,00,136,00,19,00,1,1,1,
Status,1640342820000,32,27,5,5,1575449984,21,00,122,00,18,00,1,1,1,
Status,1640342820000,32,28,6,26,1575449984,14,00,296,00,15,00,0,1,1,
Status,1640342820000,32,29,1,9,1575449984,25,00,102,00,11,00,1,1,1,
Status,1640342820000,32,30,1,9,1176450048,26,00,102,00,11,00,1,1,1,
Status,1640342820000,32,31,6,13,1575449984,17,00,244,00,10,00,1,1,1,
OrientationDeg,1640342820192,110681347053,154,-1,-29
Raw,1640342820000,76092000000,,,-1324377961908391326,0.0,10.70638008292648,,,0,2,0.0,16431,470837916411600,78,16.948936462402344,521.5630823545239,1.1894284728456395,20,23433.38089595741,3.4028234663852886E38,1.57542003E9,,,,1,,1,48.85938262939453,,,,,,,
Raw,1640342820000,76092000000,,,-1324377961908391326,0.0,10.70638008292648,,,0,5,0.0,16431,470837930880961,23,31.918285369873047,-109.04558195600566,0.0043441541492938995,17,-5550.029205274198,0.0021720770746469498,1.57542003E9,,,,0,,1,48.85938262939453,,,,,,,
Raw,1640342820000,76092000000,,,-1324377961908391326,0.0,10.70638008292648,,,0,7,0.0,16431,470837926234057,14,37.7413215637207,455.3762247419181,0.002356837270781398,17,22884.326445025894,0.001178418635390699,1.57542003E9,,,,0,,1,48.85938262939453,,,,,,,
Raw,1640342820000,76092000000,,,-1324377961908391326,0.0,10.70638008292648,,,0,8,0.0,16392,470837916158632,1000000000,7.0,-175.07000816368748,2.99792458E8,18,-178.4346609131594,3.4028234663852886E38,1.57542003E9,,,,0,,1,48.85938262939453,,,,,,,
Raw,1640342820000,76092000000,,,-1324377961908391326,0.0,10.70638008292648,,,0,9,0.0,16431,470837917994860,41,25.008625030517578,599.1811331315839,0.009624721482396124,17,32584.898571799833,0.0999591971403805,1.57542003E9,,,,0,,1,48.85938262939453,,,,,,,
Raw,1640342820000,76092000000,,,-1324377961908391326,0.0,10.70638008292648,,,0,13,0.0,16431,470837928903260,96,14.458147048950195,-402.24346948925177,1.3000859548302657,20,-21841.73759529485,3.4028234663852886E38,1.57542003E9,,,,0,,1,48.85938262939453,,,,,,,
Raw,1640342820000,76092000000,,,-1324377961908391326,0.0,10.70638008292648,,,0,14,0.0,16431,470837927070840,12,42.433780670166016,-480.92396176909824,0.001447389367967844,17,-34224.35446999957,7.23694683983922E-4,1.57542003E9,,,,0,,1,48.85938262939453,,,,,,,
Raw,1640342820000,76092000000,,,-1324377961908391326,0.0,10.70638008292648,,,0,15,0.0,16392,470837920947130,1000000000,7.0,-625.4623604257026,2.99792458E8,20,-1124.225409477149,3.4028234663852886E38,1.57542003E9,,,,0,,1,48.85938262939453,,,,,,,
Raw,1640342820000,76092000000,,,-1324377961908391326,0.0,10.70638008292648,,,0,18,0.0,16392,470837917406675,1000000000,7.0,-236.52101809887984,2.99792458E8,20,-1614.754541286476,3.4028234663852886E38,1.57542003E9,,,,1,,1,48.85938262939453,,,,,,,
Raw,1640342820000,76092000000,,,-1324377961908391326,0.0,10.70638008292648,,,0,20,0.0,16431,470837931455410,14,40.766422271728516,297.3831841990722,0.0017536926316097379,17,21255.76705633995,8.768463158048689E-4,1.57542003E9,,,,0,,1,48.85938262939453,,,,,,,
Raw,1640342820000,76092000000,,,-1324377961908391326,0.0,10.70638008292648,,,0,28,0.0,16431,470837924444296,27,30.153249740600586,-596.1305298454172,0.005323005840182305,17,-42807.99355945291,0.002661502920091152,1.57542003E9,,,,0,,1,48.85938262939453,,,,,,,
Raw,1640342820000,76092000000,,,-1324377961908391326,0.0,10.70638008292648,,,0,30,0.0,16431,470837931289320,13,41.00556182861328,212.1717730322125,0.0017060678219422698,17,10630.498023820783,8.530339109711349E-4,1.57542003E9,,,,0,,1,48.85938262939453,,,,,,,
Raw,1640342820000,76092000000,,,-1324377961908391326,0.0,10.70638008292648,,,0,9,0.0,16393,470837917994836,18,26.394826889038086,599.1931102408853,0.01098755281418562,17,88137.87402079802,0.00549377640709281,1.17645005E9,,,,0,,1,11.69510269165039,,,,,,,
Raw,1640342820000,76092000000,,,-1324377961908391326,0.0,10.70638008292648,,,0,30,0.0,16393,470837931289319,46,26.017850875854492,212.5660101607682,0.7806882225352378,20,19512.569741339892,3.4028234663852886E38,1.17645005E9,,,,1,,1,11.69510269165039,,,,,,,
Raw,1640342820000,76092000000,,,-1324377961908391326,0.0,10.70638008292648,,,0,6,0.0,16393,286773,172,15.831984519958496,-288.5510746906348,1.2394541966183565,20,-14459.57687452989,3.4028234663852886E38,1.59975002E9,,,,0,,3,61.12196350097656,,,,,,,
Raw,1640342820000,76092000000,,,-1324377961908391326,0.0,10.70638008292648,,,0,22,0.0,16392,49619920504108,1000000000,7.0,467.875681108206,2.99792458E8,20,2254.5548120736507,3.4028234663852886E38,1.60031245E9,,,,1,,3,61.12196350097656,,,,,,,
Raw,1640342820000,76092000000,,,-1324377961908391326,0.0,10.70638008292648,,,0,9,0.0,32995,49619924760244,65,27.778377532958984,-772.7059238177388,0.006885563489049673,17,-39991.71373862826,0.0034427817445248365,1.60087501E9,,,,0,,3,61.12196350097656,,,,,,,
Raw,1640342820000,76092000000,,,-1324377961908391326,0.0,10.70638008292648,,,0,15,0.0,32995,49619931614282,48,31.485017776489258,542.8282178843656,0.004490579478442669,17,37582.07769518891,0.0022452897392213345,1.602E9,,,,0,,3,61.12196350097656,,,,,,,
Raw,1640342820000,76092000000,,,-1324377961908391326,0.0,10.70638008292648,,,0,5,0.0,32995,49619931151753,33,38.586463928222656,493.02181559085506,0.0021021023858338594,17,24312.67434968513,0.0010510511929169297,1.60256256E9,,,,0,,3,61.12196350097656,,,,,,,
Raw,1640342820000,76092000000,,,-1324377961908391326,0.0,10.70638008292648,,,0,103,0.0,16392,49619920157184,1000000000,10.70994758605957,-183.93062888066163,2.99792458E8,20,-1071.9555491633712,3.4028234663852886E38,1.60368755E9,,,,0,,3,61.12196350097656,,,,,,,
Raw,1640342820000,76092000000,,,-1324377961908391326,0.0,10.70638008292648,,,0,7,0.0,16392,49619923908734,1000000000,7.0,-696.7938745068577,2.99792458E8,20,-2647.577490014672,3.4028234663852886E38,1.60481254E9,,,,0,,3,61.12196350097656,,,,,,,
Raw,1640342820000,76092000000,,,-1324377961908391326,0.0,10.70638008292648,,,0,2,0.0,16392,470823862584266,1000000000,7.0,9.3690798446097,2.99792458E8,20,470.7245292629339,3.4028234663852886E38,1.56109798E9,,,,0,,5,62.08014678955078,,,,,,,
Raw,1640342820000,76092000000,,,-1324377961908391326,0.0,10.70638008292648,,,0,5,0.0,16392,470823868092803,1000000000,20.154951095581055,12.741477143089341,2.99792458E8,20,719.3669630507889,3.4028234663852886E38,1.56109798E9,,,,0,,5,62.08014678955078,,,,,,,
Raw,1640342820000,76092000000,,,-1324377961908391326,0.0,10.70638008292648,,,0,7,0.0,16431,470823869925868,25,22.618045806884766,-14.047830009612738,0.9333284345242832,20,-581.6331573213442,3.4028234663852886E38,1.56109798E9,,,,0,,5,62.08014678955078,,,,,,,
Raw,1640342820000,76092000000,,,-1324377961908391326,0.0,10.70638008292648,,,0,10,0.0,16431,470823871016289,11,32.71623992919922,-87.16419613354174,0.003999204374849796,17,-3985.442206702169,0.001999602187424898,1.56109798E9,,,,0,,5,62.08014678955078,,,,,,,
Raw,1640342820000,76092000000,,,-1324377961908391326,0.0,10.70638008292648,,,0,21,0.0,16431,470823915367840,22,24.171072006225586,599.1124726421804,0.010696263052523136,17,30592.488450160225,0.10136787468139981,1.56109798E9,,,,0,,5,62.08014678955078,,,,,,,
Raw,1640342820000,76092000000,,,-1324377961908391326,0.0,10.70638008292648,,,0,24,0.0,16431,470823924676752,7,40.490516662597656,-377.22255595416567,0.0018268999410793185,17,-19066.931032016135,9.134499705396593E-4,1.56109798E9,,,,0,,5,62.08014678955078,,,,,,,
Raw,1640342820000,76092000000,,,-1324377961908391326,0.0,10.70638008292648,,,0,25,0.0,16392,470823909810426,1000000000,7.0,-629.8876265806243,2.99792458E8,20,-27666.492168861838,3.4028234663852886E38,1.56109798E9,,,,0,,5,62.08014678955078,,,,,,,
Raw,1640342820000,76092000000,,,-1324377961908391326,0.0,10.70638008292648,,,0,26,0.0,16431,470823928180608,8,35.411041259765625,178.31831319011872,0.0031103540677577257,17,9148.029282208268,0.0015551770338788629,1.56109798E9,,,,0,,5,62.08014678955078,,,,,,,
Raw,1640342820000,76092000000,,,-1324377961908391326,0.0,10.70638008292648,,,0,2,0.0,18474,470837920552362,1000000000,35.94062042236328,-230.81738716470056,2.99792458E8,20,-4121.68838303078,3.4028234663852886E38,1.57542003E9,,,,0,,6,48.85938262939453,,,,,,,
Raw,1640342820000,76092000000,,,-1324377961908391326,0.0,10.70638008292648,,,0,3,0.0,18474,470837915960608,1000000000,41.300697326660156,360.691092805424,2.99792458E8,20,6781.0391747021795,3.4028234663852886E38,1.57542003E9,,,,0,,6,48.85938262939453,,,,,,,
Raw,1640342820000,76092000000,,,-1324377961908391326,0.0,10.70638008292648,,,0,7,0.0,16392,470837913274044,1000000000,9.596918106079102,-414.3756652078505,2.99792458E8,18,-412.5665977409656,3.4028234663852886E38,1.57542003E9,,,,0,,6,48.85938262939453,,,,,,,
Raw,1640342820000,76092000000,,,-1324377961908391326,0.0,10.70638008292648,,,0,8,0.0,18474,470837928499859,1000000000,31.170074462890625,-61.04836405413894,2.99792458E8,20,-1092.1368629034503,3.4028234663852886E38,1.57542003E9,,,,0,,6,48.85938262939453,,,,,,,
Raw,1640342820000,76092000000,,,-1324377961908391326,0.0,10.70638008292648,,,0,13,0.0,16392,470837907918515,1000000000,12.785083770751953,527.6234884435839,2.99792458E8,18,3.6467346828083675,3.4028234663852886E38,1.57542003E9,,,,0,,6,48.85938262939453,,,,,,,
Raw,1640342820000,76092000000,,,-1324377961908391326,0.0,10.70638008292648,,,0,25,0.0,18440,470837915228614,1000000000,29.944293975830078,294.92722065692215,2.99792458E8,20,5537.79274033799,3.4028234663852886E38,1.57542003E9,,,,0,,6,48.85938262939453,,,,,,,
Raw,1640342820000,76092000000,,,-1324377961908391326,0.0,10.70638008292648,,,0,26,0.0,16392,470837908574177,1000000000,9.767805099487305,210.52958338353028,2.99792458E8,18,1.5917812491813148,3.4028234663852886E38,1.57542003E9,,,,0,,6,48.85938262939453,,,,,,,
Raw,1640342820000,76092000000,,,-1324377961908391326,0.0,10.70638008292648,,,0,30,0.0,18440,470837912024852,1000000000,24.819629669189453,-585.8459354372835,2.99792458E8,20,-10998.855377006319,3.4028234663852886E38,1.57542003E9,,,,0,,6,48.85938262939453,,,,,,,
Raw,1640342820000,76092000000,,,-1324377961908391326,0.0,10.70638008292648,,,0,33,0.0,16392,470837904698404,1000000000,7.0,-185.2808735607258,2.99792458E8,18,-1.4921670327673544,3.4028234663852886E38,1.57542003E9,,,,0,,6,48.85938262939453,,,,,,,
Raw,1640342820000,76092000000,,,-1324377961908391326,0.0,10.70638008292648,,,0,2,0.0,18475,470837920552355,9,35.18195343017578,-230.8460518365473,0.0042376089841127396,17,-5321.9401431354745,0.0021188044920563698,1.17645005E9,,,,0,,6,11.69510269165039,,,,,,,
Raw,1640342820000,76092000000,,,-1324377961908391326,0.0,10.70638008292648,,,0,3,0.0,18475,470837915960611,10,36.36182403564453,360.73109756815757,0.003699367167428136,17,7200.955894228698,0.001849683583714068,1.17645005E9,,,,0,,6,11.69510269165039,,,,,,,
Raw,1640342820000,76092000000,,,-1324377961908391326,0.0,10.70638008292648,,,0,8,0.0,16392,470837928499859,1000000000,25.908004760742188,-59.81443001726592,2.99792458E8,20,-1585.2050251257033,3.4028234663852886E38,1.17645005E9,,,,1,,6,11.69510269165039,,,,,,,
Raw,1640342820000,76092000000,,,-1324377961908391326,0.0,10.70638008292648,,,0,25,0.0,18475,470837915228597,41,22.513023376464844,295.10974510667256,0.017178736627101898,17,5881.304346362951,0.008589368313550949,1.17645005E9,,,,0,,6,11.69510269165039,,,,,,,
Raw,1640342820000,76092000000,,,-1324377961908391326,0.0,10.70638008292648,,,0,30,0.0,18475,470837912024820,43,22.12161636352539,-585.1207041487796,0.017970558255910873,17,-11700.109042311056,0.008985279127955437,1.17645005E9,,,,0,,6,11.69510269165039,,,,,,,
OrientationDeg,1640342820205,110694681324,154,-1,-29
OrientationDeg,1640342820218,110707990282,153,-1,-29
OrientationDeg,1640342820232,110721345959,153,-1,-29
OrientationDeg,1640342820245,110734680803,153,-1,-29
OrientationDeg,1640342820258,110747996376,153,-1,-29
OrientationDeg,1640342820272,110761351688,153,-1,-29
OrientationDeg,1640342820285,110774686219,153,-1,-29
OrientationDeg,1640342820298,110787995126,153,0,-29
OrientationDeg,1640342820312,110801345855,154,0,-29
OrientationDeg,1640342820325,110814678042,154,0,-29
OrientationDeg,1640342820338,110827986324,154,0,-29
OrientationDeg,1640342820352,110841345074,154,0,-28
OrientationDeg,1640342820365,110854677782,154,0,-28
OrientationDeg,1640342820378,110867985855,154,0,-28
OrientationDeg,1640342820391,110881343407,154,0,-28
OrientationDeg,1640342820405,110894684188,154,0,-28
OrientationDeg,1640342820418,110907992209,154,0,-28
OrientationDeg,1640342820431,110921341584,154,-1,-28
OrientationDeg,1640342820445,110934675855,154,-1,-28
OrientationDeg,1640342820458,110947983563,154,-1,-28
OrientationDeg,1640342820472,110961339969,153,-1,-28
OrientationDeg,1640342820485,110974674969,153,-1,-28
OrientationDeg,1640342820498,110987983147,153,-1,-28
OrientationDeg,1640342820512,111001339865,153,-1,-28
OrientationDeg,1640342820525,111014675230,153,-1,-28
OrientationDeg,1640342820538,111027984865,153,-1,-28
OrientationDeg,1640342820552,111041337001,153,-1,-28
OrientationDeg,1640342820565,111054670699,153,-1,-28
OrientationDeg,1640342820578,111067979865,153,-2,-28
OrientationDeg,1640342820592,111081337469,153,-2,-28
OrientationDeg,1640342820605,111094672001,153,-2,-28
OrientationDeg,1640342820618,111107978876,153,-2,-28
OrientationDeg,1640342820632,111121335855,153,-1,-28
OrientationDeg,1640342820645,111134669605,153,-1,-28
OrientationDeg,1640342820658,111147978876,153,-1,-28
OrientationDeg,1640342820672,111161334240,153,-1,-28
OrientationDeg,1640342820685,111174669240,153,-1,-28
OrientationDeg,1640342820698,111187978563,153,-1,-28
OrientationDeg,1640342820711,111201334188,153,-1,-28
OrientationDeg,1640342820725,111214666844,153,-1,-28
OrientationDeg,1640342820738,111227984449,153,-1,-28
OrientationDeg,1640342820752,111241332834,153,-1,-28
OrientationDeg,1640342820765,111254669136,153,-1,-28
OrientationDeg,1640342820778,111267975074,153,-1,-28
OrientationDeg,1640342820792,111281330959,153,-1,-28
OrientationDeg,1640342820804,111294666011,153,-1,-28
OrientationDeg,1640342820818,111307975334,153,-1,-28
OrientationDeg,1640342820832,111321330907,153,-1,-28
OrientationDeg,1640342820845,111334663876,153,-1,-28
OrientationDeg,1640342820858,111347973459,153,-1,-28
OrientationDeg,1640342820871,111361329813,153,-1,-28
OrientationDeg,1640342820885,111374664605,153,-1,-28
OrientationDeg,1640342820898,111387972469,153,-1,-28
OrientationDeg,1640342820912,111401329240,153,-1,-28
OrientationDeg,1640342820925,111414661688,153,-1,-28
OrientationDeg,1640342820938,111427972522,153,-1,-28
OrientationDeg,1640342820951,111441327365,153,-1,-27
OrientationDeg,1640342820965,111454662417,153,-1,-27
OrientationDeg,1640342820978,111467976532,152,-1,-27
OrientationDeg,1640342820992,111481325230,152,-1,-28
OrientationDeg,1640342821005,111494660022,152,-1,-28
OrientationDeg,1640342821018,111507967834,153,-1,-28
OrientationDeg,1640342821032,111521325126,153,-1,-28
OrientationDeg,1640342821045,111534657834,153,-1,-28
OrientationDeg,1640342821058,111547969084,153,-1,-28
OrientationDeg,1640342821071,111561324032,152,-1,-28
OrientationDeg,1640342821085,111574656792,152,-1,-28
OrientationDeg,1640342821098,111587969657,152,-1,-28
OrientationDeg,1640342821112,111601322990,152,-1,-28
Nav,5,257,1,-1,3,34,-64,-115,51,38,81,43,43,63,-25,64,-14,28,-107,41,98,63,-11,73,-41,5,69,96,-2,8,86,-118,122,21,-69,77,89,63,-23,-115,101,16,-2,-3,-41
Nav,7,257,1,-1,3,34,-64,-115,51,38,81,43,43,0,42,-106,-71,41,-60,19,15,63,-12,-119,-126,47,79,-48,-67,7,-72,40,-72,23,-39,-52,47,63,-22,14,-24,15,1,66,-68
Nav,9,257,1,-1,3,34,-64,-115,51,38,81,43,43,0,0,-117,-66,61,-113,124,-18,63,-6,-119,-97,54,-44,67,50,5,-26,82,-53,12,20,40,80,63,-22,77,94,17,2,0,68
Nav,14,257,1,-1,3,34,-64,-115,51,38,81,43,43,63,-5,97,-90,46,4,-81,34,0,1,9,-96,57,-79,63,-40,6,-37,-33,109,3,64,42,21,63,-22,27,-44,41,-68,49,-8
Nav,20,257,1,-1,3,34,-64,-115,51,38,81,43,43,0,7,63,-94,53,-17,-54,24,63,-5,-55,-122,22,-66,-37,-90,8,-99,-33,68,23,10,6,-93,63,-24,-69,-86,17,-65,47,67
Nav,28,257,1,-1,3,34,-64,-115,51,38,81,43,43,0,44,98,48,55,13,53,-69,63,-17,73,-47,34,-99,-90,-124,7,10,-14,-19,2,-67,-75,-43,63,-21,27,79,21,59,-113,-101
Nav,30,257,1,-1,3,34,-64,-115,51,38,81,43,43,0,1,-42,-47,14,41,-104,-21,63,-12,-55,-116,8,-84,53,28,7,-124,35,-21,57,117,86,104,63,-23,70,-4,42,-63,38,11
OrientationDeg,1640342821125,111614656428,152,-1,-28
OrientationDeg,1640342821138,111627966480,152,-1,-28
OrientationDeg,1640342821152,111641321584,153,-1,-28
Fix,GPS,44.4281558,8.7448404,56.714697,0.084114,4.000000,104.470093,1640342821000,0.014687932,180.0,111635714435
Raw,1640342821000,77092000000,,,-1324377961908391301,0.0,10.639376255477076,,,0,2,0.0,16431,470838916409826,75,17.476028442382812,521.2762103179714,1.1657254556799828,20,23955.932977936187,3.4028234663852886E38,1.57542003E9,,,,1,,1,48.37400817871094,,,,,,,
Raw,1640342821000,77092000000,,,-1324377961908391301,0.0,10.639376255477076,,,0,5,0.0,16431,470838930881328,24,31.49613380432129,-109.03504159814747,0.004560503177344799,17,-5659.064246872345,0.0022802515886723995,1.57542003E9,,,,0,,1,48.37400817871094,,,,,,,
Raw,1640342821000,77092000000,,,-1324377961908391301,0.0,10.639376255477076,,,0,7,0.0,16431,470838926232538,14,37.82228088378906,455.31174638339144,0.0023349723778665066,17,23339.638191409285,0.0011674861889332533,1.57542003E9,,,,0,,1,48.37400817871094,,,,,,,
Raw,1640342821000,77092000000,,,-1324377961908391301,0.0,10.639376255477076,,,0,8,0.0,16392,470838916159217,1000000000,7.0,-175.25565530436722,2.99792458E8,18,-178.44173472430518,3.4028234663852886E38,1.57542003E9,,,,0,,1,48.37400817871094,,,,,,,
Raw,1640342821000,77092000000,,,-1324377961908391301,0.0,10.639376255477076,,,0,9,0.0,16431,470838917992898,44,24.054317474365234,599.1260282915705,0.8701920151617348,20,33183.986273071554,3.4028234663852886E38,1.57542003E9,,,,0,,1,48.37400817871094,,,,,,,
Raw,1640342821000,77092000000,,,-1324377961908391301,0.0,10.639376255477076,,,0,13,0.0,16431,470838928904671,62,19.90070915222168,-402.7794502005295,1.0553403005110495,20,-22239.243327485467,3.4028234663852886E38,1.57542003E9,,,,1,,1,48.37400817871094,,,,,,,
Raw,1640342821000,77092000000,,,-1324377961908391301,0.0,10.639376255477076,,,0,14,0.0,16431,470838927072451,12,42.75934982299805,-480.9084570319683,0.0013941415818408132,17,-34705.26292703154,6.970707909204066E-4,1.57542003E9,,,,0,,1,48.37400817871094,,,,,,,
Raw,1640342821000,77092000000,,,-1324377961908391301,0.0,10.639376255477076,,,0,15,0.0,16392,470838920949215,1000000000,12.925765991210938,-625.0910661443431,2.99792458E8,20,-1124.3749410501423,3.4028234663852886E38,1.57542003E9,,,,0,,1,48.37400817871094,,,,,,,
Raw,1640342821000,77092000000,,,-1324377961908391301,0.0,10.639376255477076,,,0,18,0.0,16392,470838917407462,1000000000,7.0,-236.14970677629208,2.99792458E8,20,-1850.8948622626299,3.4028234663852886E38,1.57542003E9,,,,1,,1,48.37400817871094,,,,,,,
Raw,1640342821000,77092000000,,,-1324377961908391301,0.0,10.639376255477076,,,0,20,0.0,16431,470838931454422,13,41.16394805908203,297.4367740676498,0.0016752396477386355,17,21553.2038304076,8.376198238693178E-4,1.57542003E9,,,,0,,1,48.37400817871094,,,,,,,
Raw,1640342821000,77092000000,,,-1324377961908391301,0.0,10.639376255477076,,,0,28,0.0,16431,470838924446284,25,30.89031982421875,-596.1156798811207,0.004889939446002245,17,-43404.10923933403,0.0024449697230011225,1.57542003E9,,,,0,,1,48.37400817871094,,,,,,,
Raw,1640342821000,77092000000,,,-1324377961908391301,0.0,10.639376255477076,,,0,30,0.0,16431,470838931288613,12,42.170440673828125,212.14894218693007,0.0014919440727680922,17,10842.646966007713,7.459720363840461E-4,1.57542003E9,,,,0,,1,48.37400817871094,,,,,,,
Raw,1640342821000,77092000000,,,-1324377961908391301,0.0,10.639376255477076,,,0,9,0.0,16393,470838917992840,17,27.507593154907227,599.0795994218788,0.009666352532804012,17,88736.9536202199,0.004833176266402006,1.17645005E9,,,,0,,1,11.260717391967773,,,,,,,
Raw,1640342821000,77092000000,,,-1324377961908391301,0.0,10.639376255477076,,,0,30,0.0,16393,470838931288609,21,27.633283615112305,212.10595385481065,0.009527482092380524,17,19724.675695194703,0.004763741046190262,1.17645005E9,,,,0,,1,11.260717391967773,,,,,,,
Raw,1640342821000,77092000000,,,-1324377961908391301,0.0,10.639376255477076,,,0,6,0.0,16393,287755,170,15.992531776428223,-287.82440263511194,1.2322347068923314,20,-14747.129899255438,3.4028234663852886E38,1.59975002E9,,,,0,,3,61.30692672729492,,,,,,,
Raw,1640342821000,77092000000,,,-1324377961908391301,0.0,10.639376255477076,,,0,22,0.0,16392,49620920502549,1000000000,7.0,468.4234543494406,2.99792458E8,20,2722.9561699056294,3.4028234663852886E38,1.60031245E9,,,,1,,3,61.30692672729492,,,,,,,
Raw,1640342821000,77092000000,,,-1324377961908391301,0.0,10.639376255477076,,,0,9,0.0,32995,49620924762858,72,26.576162338256836,-772.7147407736629,0.007907702587544918,17,-40764.428479401926,0.003953851293772459,1.60087501E9,,,,0,,3,61.30692672729492,,,,,,,
Raw,1640342821000,77092000000,,,-1324377961908391301,0.0,10.639376255477076,,,0,15,0.0,32995,49620931612521,46,32.09774398803711,542.8177551394328,0.00418471684679389,17,38124.895450328346,0.002092358423396945,1.602E9,,,,0,,3,61.30692672729492,,,,,,,
Raw,1640342821000,77092000000,,,-1324377961908391301,0.0,10.639376255477076,,,0,5,0.0,32995,49620931150104,33,38.206722259521484,493.06479414189016,0.0021960437297821045,17,24805.73914382702,0.0010980218648910522,1.60256256E9,,,,0,,3,61.30692672729492,,,,,,,
Raw,1640342821000,77092000000,,,-1324377961908391301,0.0,10.639376255477076,,,0,103,0.0,16392,49620920157796,1000000000,9.849761962890625,-183.38403148417706,2.99792458E8,20,-1255.3252135198716,3.4028234663852886E38,1.60368755E9,,,,1,,3,61.30692672729492,,,,,,,
Raw,1640342821000,77092000000,,,-1324377961908391301,0.0,10.639376255477076,,,0,7,0.0,16392,49620923911059,1000000000,7.0,-696.3386692175391,2.99792458E8,20,-3344.664433270296,3.4028234663852886E38,1.60481254E9,,,,1,,3,61.30692672729492,,,,,,,
Raw,1640342821000,77092000000,,,-1324377961908391301,0.0,10.639376255477076,,,0,2,0.0,16392,470824862584234,1000000000,7.0,9.3690798446097,2.99792458E8,20,480.0936095938563,3.4028234663852886E38,1.56109798E9,,,,0,,5,62.08014678955078,,,,,,,
Raw,1640342821000,77092000000,,,-1324377961908391301,0.0,10.639376255477076,,,0,5,0.0,16392,470824868092715,1000000000,21.038278579711914,12.741477143089341,2.99792458E8,20,731.5465731633564,3.4028234663852886E38,1.56109798E9,,,,0,,5,62.08014678955078,,,,,,,
Raw,1640342821000,77092000000,,,-1324377961908391301,0.0,10.639376255477076,,,0,7,0.0,16431,470824869925913,23,23.325931549072266,-13.973662323912038,0.901495553266574,20,-595.6026876002558,3.4028234663852886E38,1.56109798E9,,,,0,,5,62.08014678955078,,,,,,,
Raw,1640342821000,77092000000,,,-1324377961908391301,0.0,10.639376255477076,,,0,10,0.0,16431,470824871016574,11,32.747154235839844,-87.25313977340966,0.0039849961176514626,17,-4072.695346475579,0.0019924980588257313,1.56109798E9,,,,0,,5,62.08014678955078,,,,,,,
Raw,1640342821000,77092000000,,,-1324377961908391301,0.0,10.639376255477076,,,0,21,0.0,16431,470824915365838,24,22.93073844909668,598.7843857473858,0.9202455640649725,20,31191.582498306314,3.4028234663852886E38,1.56109798E9,,,,0,,5,62.08014678955078,,,,,,,
Raw,1640342821000,77092000000,,,-1324377961908391301,0.0,10.639376255477076,,,0,24,0.0,16431,470824924678008,7,40.36252212524414,-377.20432462992903,0.001854020869359374,17,-19444.135356646064,9.27010434679687E-4,1.56109798E9,,,,0,,5,62.08014678955078,,,,,,,
Raw,1640342821000,77092000000,,,-1324377961908391301,0.0,10.639376255477076,,,0,25,0.0,16392,470824909812529,1000000000,7.0,-629.5129240536126,2.99792458E8,20,-28296.298133833658,3.4028234663852886E38,1.56109798E9,,,,0,,5,62.08014678955078,,,,,,,
Raw,1640342821000,77092000000,,,-1324377961908391301,0.0,10.639376255477076,,,0,26,0.0,16431,470824928180026,9,34.90909194946289,178.3823023252844,0.0032953941263258457,17,9326.411584533553,0.0016476970631629229,1.56109798E9,,,,0,,5,62.08014678955078,,,,,,,
Raw,1640342821000,77092000000,,,-1324377961908391301,0.0,10.639376255477076,,,0,2,0.0,18474,470838920553126,1000000000,38.09634780883789,-230.886779046181,2.99792458E8,20,-4352.509052818238,3.4028234663852886E38,1.57542003E9,,,,0,,6,48.37400817871094,,,,,,,
Raw,1640342821000,77092000000,,,-1324377961908391301,0.0,10.639376255477076,,,0,3,0.0,18474,470838915959410,1000000000,41.07908630371094,360.6327095574004,2.99792458E8,20,7141.73201536223,3.4028234663852886E38,1.57542003E9,,,,0,,6,48.37400817871094,,,,,,,
Raw,1640342821000,77092000000,,,-1324377961908391301,0.0,10.639376255477076,,,0,7,0.0,16392,470838913275427,1000000000,20.93294334411621,-414.56131234853024,2.99792458E8,18,-412.5764984915879,3.4028234663852886E38,1.57542003E9,,,,0,,6,48.37400817871094,,,,,,,
Raw,1640342821000,77092000000,,,-1324377961908391301,0.0,10.639376255477076,,,0,8,0.0,18474,470838928500061,1000000000,32.08100891113281,-61.12572697013866,2.99792458E8,20,-1153.225472525243,3.4028234663852886E38,1.57542003E9,,,,0,,6,48.37400817871094,,,,,,,
Raw,1640342821000,77092000000,,,-1324377961908391301,0.0,10.639376255477076,,,0,13,0.0,16392,470838907916756,1000000000,10.936150550842285,527.2521941622244,2.99792458E8,18,3.6580110695597003,3.4028234663852886E38,1.57542003E9,,,,0,,6,48.37400817871094,,,,,,,
Raw,1640342821000,77092000000,,,-1324377961908391301,0.0,10.639376255477076,,,0,25,0.0,18440,470838915227634,1000000000,29.34980010986328,295.056290919774,2.99792458E8,20,5832.834337748089,3.4028234663852886E38,1.57542003E9,,,,0,,6,48.37400817871094,,,,,,,
Raw,1640342821000,77092000000,,,-1324377961908391301,0.0,10.639376255477076,,,0,26,0.0,16392,470838908573475,1000000000,7.0,210.34391920162227,2.99792458E8,18,1.5959835406086094,3.4028234663852886E38,1.57542003E9,,,,0,,6,48.37400817871094,,,,,,,
Raw,1640342821000,77092000000,,,-1324377961908391301,0.0,10.639376255477076,,,0,30,0.0,18440,470838912026781,1000000000,25.218717575073242,-585.4107706324003,2.99792458E8,20,-11584.342913165194,3.4028234663852886E38,1.57542003E9,,,,0,,6,48.37400817871094,,,,,,,
Raw,1640342821000,77092000000,,,-1324377961908391301,0.0,10.639376255477076,,,0,33,0.0,16392,470838904699024,1000000000,14.921943664550781,-185.46653774263382,2.99792458E8,18,-1.4972506773197576,3.4028234663852886E38,1.57542003E9,,,,0,,6,48.37400817871094,,,,,,,
Raw,1640342821000,77092000000,,,-1324377961908391301,0.0,10.639376255477076,,,0,2,0.0,18475,470838920553125,9,35.20915603637695,-230.80818240765345,0.004224359057843685,17,-5552.748325543128,0.0021121795289218426,1.17645005E9,,,,0,,6,11.260717391967773,,,,,,,
Raw,1640342821000,77092000000,,,-1324377961908391301,0.0,10.639376255477076,,,0,3,0.0,18475,470838915959408,8,36.10729217529297,360.6952355440999,0.003809377318248153,17,7561.6511297727975,0.0019046886591240764,1.17645005E9,,,,0,,6,11.260717391967773,,,,,,,
Raw,1640342821000,77092000000,,,-1324377961908391301,0.0,10.639376255477076,,,0,8,0.0,18475,470838928500084,52,25.96015739440918,-62.06777884935033,0.7863785282939935,20,-1646.3805472727472,3.4028234663852886E38,1.17645005E9,,,,1,,6,11.260717391967773,,,,,,,
Raw,1640342821000,77092000000,,,-1324377961908391301,0.0,10.639376255477076,,,0,25,0.0,18475,470838915227622,31,23.628311157226562,295.04230015855046,0.015108688734471798,17,6176.3466465215015,0.007554344367235899,1.17645005E9,,,,0,,6,11.260717391967773,,,,,,,
Raw,1640342821000,77092000000,,,-1324377961908391301,0.0,10.639376255477076,,,0,30,0.0,18475,470838912026776,46,21.906463623046875,-585.1183767309412,0.018421251326799393,17,-12285.227419041998,0.009210625663399696,1.17645005E9,,,,0,,6,11.260717391967773,,,,,,,
OrientationDeg,1640342821165,111654655647,153,-1,-28
OrientationDeg,1640342821178,111667964344,153,-1,-28
OrientationDeg,1640342821192,111681319449,152,-1,-28
OrientationDeg,1640342821204,111694656324,152,-1,-28
OrientationDeg,1640342821218,111707965751,152,-1,-28
Status,1640342821000,32,0,6,8,1176450048,26,00,348,00,79,00,1,1,1,
Status,1640342821000,32,1,6,8,1575449984,32,00,348,00,79,00,1,1,1,
Status,1640342821000,32,2,1,30,1575449984,42,00,55,00,70,00,1,1,1,
Status,1640342821000,32,3,1,30,1176450048,28,00,55,00,70,00,1,1,1,
Status,1640342821000,32,4,5,26,1575449984,36,00,71,00,68,00,1,1,1,
Status,1640342821000,32,5,3,6,1599750016,16,00,338,00,67,00,1,1,1,
Status,1640342821000,32,6,1,5,1575449984,32,00,280,00,59,00,1,1,1,
Status,1640342821000,32,7,1,20,1575449984,41,00,216,00,58,00,1,1,1,
Status,1640342821000,32,8,6,2,1575449984,38,00,130,00,57,00,1,1,1,
Status,1640342821000,32,9,6,2,1176450048,35,00,130,00,57,00,1,1,1,
Status,1640342821000,32,10,5,24,1575449984,41,00,204,00,55,00,1,1,1,
Status,1640342821000,32,11,3,15,1602000000,32,00,39,00,45,00,1,1,1,
Status,1640342821000,32,12,1,13,1575449984,20,00,295,00,45,00,1,1,1,
Status,1640342821000,32,13,3,5,1602562560,39,00,118,00,42,00,1,1,1,
Status,1640342821000,32,14,1,14,1575449984,43,00,146,00,41,00,1,1,1,
Status,1640342821000,32,15,6,3,1176450048,37,00,104,00,39,00,1,1,1,
Status,1640342821000,32,16,6,3,1575449984,42,00,104,00,39,00,1,1,1,
Status,1640342821000,32,17,1,7,1575449984,38,00,55,00,39,00,1,1,1,
Status,1640342821000,32,18,6,25,1575449984,31,00,54,00,37,00,1,1,1,
Status,1640342821000,32,19,6,25,1176450048,24,00,54,00,37,00,1,1,1,
Status,1640342821000,32,20,5,10,1575449984,33,00,68,00,31,00,1,1,1,
Status,1640342821000,32,21,6,7,1575449984,21,00,298,00,30,00,1,1,1,
Status,1640342821000,32,22,5,7,1575449984,23,00,56,00,25,00,1,1,1,
Status,1640342821000,32,23,6,30,1176450048,23,00,185,00,23,00,1,1,1,
Status,1640342821000,32,24,6,30,1575449984,25,00,185,00,23,00,1,1,1,
Status,1640342821000,32,25,3,9,1600875008,28,00,205,00,20,00,1,1,1,
Status,1640342821000,32,26,5,21,1575449984,26,00,136,00,19,00,1,1,1,
Status,1640342821000,32,27,5,5,1575449984,21,00,122,00,18,00,1,1,1,
Status,1640342821000,32,28,1,15,1575449984,13,00,294,00,15,00,1,1,1,
Status,1640342821000,32,29,1,9,1575449984,25,00,102,00,11,00,1,1,1,
Status,1640342821000,32,30,1,9,1176450048,28,00,102,00,11,00,1,1,1,
Status,1640342821000,32,31,6,13,1575449984,17,00,244,00,10,00,0,1,1,
OrientationDeg,1640342821232,111721320230,152,-2,-28
OrientationDeg,1640342821245,111734659501,152,-2,-28
OrientationDeg,1640342821258,111747963407,152,-1,-29
OrientationDeg,1640342821272,111761317522,152,-1,-29
OrientationDeg,1640342821285,111774658355,152,-1,-29
OrientationDeg,1640342821298,111787962938,152,-1,-29
OrientationDeg,1640342821312,111801317782,152,-2,-29
OrientationDeg,1640342821325,111814652574,152,-2,-29
OrientationDeg,1640342821338,111827962938,152,-2,-29
OrientationDeg,1640342821352,111841316688,152,-2,-29
OrientationDeg,1640342821365,111854650126,152,-2,-29
OrientationDeg,1640342821378,111867962261,152,-1,-28
OrientationDeg,1640342821392,111881315803,152,-1,-28
OrientationDeg,1640342821405,111894648563,152,-1,-28
OrientationDeg,1640342821418,111907958667,152,-1,-28
OrientationDeg,1640342821432,111921315490,152,-1,-29
OrientationDeg,1640342821445,111934648511,152,-2,-29
OrientationDeg,1640342821458,111947959605,152,-2,-29
OrientationDeg,1640342821471,111961312626,152,-1,-29
OrientationDeg,1640342821485,111974645803,152,-1,-29
OrientationDeg,1640342821498,111987957990,152,-1,-29
OrientationDeg,1640342821512,112001309657,152,-1,-29
OrientationDeg,1640342821525,112014644501,152,-1,-29
OrientationDeg,1640342821538,112027955126,152,-1,-29
OrientationDeg,1640342821551,112041310126,152,-1,-29
OrientationDeg,1640342821565,112054647261,152,-1,-29
OrientationDeg,1640342821578,112067954917,152,-1,-29
OrientationDeg,1640342821592,112081309292,152,-1,-29
OrientationDeg,1640342821605,112094642261,152,-1,-29
OrientationDeg,1640342821618,112107954240,152,-1,-29
OrientationDeg,1640342821632,112121308511,152,-1,-29
OrientationDeg,1640342821645,112134644292,152,-1,-29
OrientationDeg,1640342821658,112147952574,152,-2,-28
OrientationDeg,1640342821672,112161308199,152,-2,-29
OrientationDeg,1640342821685,112174641428,152,-2,-29
OrientationDeg,1640342821698,112187951897,152,-1,-29
OrientationDeg,1640342821712,112201318772,152,-1,-29
OrientationDeg,1640342821725,112214641324,152,-1,-29
OrientationDeg,1640342821738,112227950282,152,-1,-29
OrientationDeg,1640342821752,112241307053,152,-2,-29
OrientationDeg,1640342821765,112254638667,152,-2,-29
OrientationDeg,1640342821778,112267949865,152,-2,-29
OrientationDeg,1640342821792,112281309553,152,-1,-29
OrientationDeg,1640342821805,112294647209,152,-1,-29
OrientationDeg,1640342821818,112307948147,152,-1,-29
OrientationDeg,1640342821832,112321306688,152,-1,-29
OrientationDeg,1640342821845,112334642469,152,-1,-29
OrientationDeg,1640342821858,112347961272,152,-1,-29
OrientationDeg,1640342821872,112361306844,152,-1,-29
OrientationDeg,1640342821885,112374638511,152,-1,-29
OrientationDeg,1640342821898,112387947417,152,-1,-29
OrientationDeg,1640342821912,112401300855,152,-1,-29
OrientationDeg,1640342821925,112414634813,152,-1,-29
OrientationDeg,1640342821938,112427945022,152,-1,-29
OrientationDeg,1640342821951,112441298928,152,-1,-30
OrientationDeg,1640342821965,112454634553,152,-1,-30
OrientationDeg,1640342821978,112467942365,152,-1,-29
OrientationDeg,1640342821992,112481297834,152,-1,-29
OrientationDeg,1640342822005,112494632417,152,-1,-29
OrientationDeg,1640342822018,112507941011,152,-1,-30
OrientationDeg,1640342822032,112521297001,152,-1,-30
OrientationDeg,1640342822045,112534630490,152,-1,-30
OrientationDeg,1640342822058,112547939397,152,-1,-30
OrientationDeg,1640342822072,112561297782,152,-1,-30
OrientationDeg,1640342822085,112574632001,152,-1,-30
OrientationDeg,1640342822098,112587963407,152,-1,-30
OrientationDeg,1640342822112,112601294292,152,-1,-30
Nav,9,769,1,5,1,8,54,-16,76,-70,-124,23,-2,-4,126,80
Nav,15,769,1,5,1,8,54,-11,-119,-42,36,5,-68,-84,-42,-80
Nav,5,769,1,5,1,8,54,-16,113,-58,16,16,-60,123,63,48
Nav,2,1537,1,24,0,0,-107,85,85,85,85,85,85,85,85,85,85,82,53,-64,-117,-51,99,34,-64,-79,-8,-22,-86,-86,99,-90,28,-65,64
Nav,3,1537,1,24,0,0,-107,85,85,85,85,85,85,85,85,85,85,82,53,-64,-117,-51,120,72,-128,-15,-37,106,-86,-86,102,-110,68,127,64
Nav,8,1537,1,24,0,0,-107,85,85,85,85,85,85,85,85,85,85,82,53,-64,-117,-51,71,110,-126,49,-15,42,-86,-86,67,-76,-108,-1,64
OrientationDeg,1640342822125,112614628303,152,-1,-30
OrientationDeg,1640342822138,112627936428,152,-1,-30
OrientationDeg,1640342822152,112641293459,152,-1,-30
Status,1640342821000,30,0,6,8,1176450048,26,00,348,00,79,00,1,1,1,
Status,1640342821000,30,1,6,8,1575449984,33,00,348,00,79,00,1,1,1,
Status,1640342821000,30,2,1,30,1575449984,42,00,55,00,70,00,1,1,1,
Status,1640342821000,30,3,1,30,1176450048,28,00,55,00,70,00,1,1,1,
Status,1640342821000,30,4,5,26,1575449984,36,00,71,00,68,00,1,1,1,
Status,1640342821000,30,5,3,6,1599750016,16,00,338,00,67,00,1,1,1,
Status,1640342821000,30,6,1,5,1575449984,32,00,280,00,59,00,1,1,1,
Status,1640342821000,30,7,1,20,1575449984,41,00,216,00,58,00,1,1,1,
Status,1640342821000,30,8,6,2,1575449984,38,00,130,00,57,00,1,1,1,
Status,1640342821000,30,9,6,2,1176450048,35,00,130,00,57,00,1,1,1,
Status,1640342821000,30,10,5,24,1575449984,41,00,204,00,55,00,1,1,1,
Status,1640342821000,30,11,3,15,1602000000,33,00,39,00,45,00,1,1,1,
Status,1640342821000,30,12,1,13,1575449984,21,00,295,00,45,00,1,1,1,
Status,1640342821000,30,13,3,5,1602562560,39,00,118,00,42,00,1,1,1,
Status,1640342821000,30,14,1,14,1575449984,43,00,146,00,41,00,1,1,1,
Status,1640342821000,30,15,6,3,1176450048,37,00,105,00,39,00,1,1,1,
Status,1640342821000,30,16,6,3,1575449984,42,00,105,00,39,00,1,1,1,
Status,1640342821000,30,17,1,7,1575449984,38,00,55,00,39,00,1,1,1,
Status,1640342821000,30,18,6,25,1575449984,31,00,54,00,37,00,1,1,1,
Status,1640342821000,30,19,6,25,1176450048,25,00,54,00,37,00,1,1,1,
Status,1640342821000,30,20,5,10,1575449984,33,00,68,00,31,00,1,1,1,
Status,1640342821000,30,21,5,7,1575449984,23,00,56,00,25,00,1,1,1,
Status,1640342821000,30,22,6,30,1176450048,23,00,185,00,24,00,1,1,1,
Status,1640342821000,30,23,6,30,1575449984,26,00,185,00,24,00,1,1,1,
Status,1640342821000,30,24,3,9,1600875008,27,00,205,00,20,00,1,1,1,
Status,1640342821000,30,25,5,21,1575449984,25,00,136,00,19,00,1,1,1,
Status,1640342821000,30,26,5,5,1575449984,22,00,122,00,18,00,1,1,1,
Status,1640342821000,30,27,1,15,1575449984,13,00,294,00,15,00,0,1,1,
Status,1640342821000,30,28,1,9,1575449984,25,00,103,00,11,00,1,1,1,
Status,1640342821000,30,29,1,9,1176450048,28,00,103,00,11,00,1,1,1,
Fix,GPS,44.4281552,8.7448414,56.849148,0.090699,4.000000,116.671211,1640342822000,0.0147154,50.904976,112636063080
Raw,1640342822000,78092000000,,,-1324377961908391276,0.0,10.743937918409621,,,0,2,0.0,16431,470839916408104,95,14.596203804016113,519.6959090563782,1.2952276071606157,20,24477.463256225394,3.4028234663852886E38,1.57542003E9,,,,1,,1,48.49791717529297,,,,,,,
Raw,1640342822000,78092000000,,,-1324377961908391276,0.0,10.743937918409621,,,0,5,0.0,16431,470839930881685,26,30.52133560180664,-108.92127996136333,0.0051021440885961064,17,-5767.985526833709,0.002551072044298053,1.57542003E9,,,,0,,1,48.49791717529297,,,,,,,
Raw,1640342822000,78092000000,,,-1324377961908391276,0.0,10.743937918409621,,,0,7,0.0,16431,470839926231007,14,37.5853157043457,455.3258760971439,0.0023995507508516316,17,23794.96406750643,0.0011997753754258156,1.57542003E9,,,,0,,1,48.49791717529297,,,,,,,
Raw,1640342822000,78092000000,,,-1324377961908391276,0.0,10.743937918409621,,,0,8,0.0,16392,470839916159801,1000000000,7.0,-175.25565530436722,2.99792458E8,18,-178.4348821086422,3.4028234663852886E38,1.57542003E9,,,,0,,1,48.49791717529297,,,,,,,
