     3.03           OBSERVATION DATA    M                   RINEX VERSION / TYPE
GnssLogger          Xiaomi 11           20211224 105623 UTC PGM / RUN BY / DATE
Google GnssLogger                                           MARKER NAME
Unknown                                                     MARKER NUMBER
Unknown             Unknown                                 OBSERVER / AGENCY
Unknown             GnssLogger          v3.0.0.10           REC # / TYPE / VERS
Unknown             Unknown                                 ANT # / TYPE
        0,0000        0,0000        0,0000                  APPROX POSITION XYZ
        0,0000        0,0000        0,0000                  ANTENNA: DELTA H/E/N
G    4 C1C L1C D1C S1C                                      SYS / # / OBS TYPES
R    4 C1C L1C D1C S1C                                      SYS / # / OBS TYPES
C    4 C2I L2I D2I S2I                                      SYS / # / OBS TYPES
  2021    12    24    10    56   23,0000000     GPS         TIME OF FIRST OBS
 5 R05  1 R06 -4 R07  5 R09 -2 R15  0                       GLONASS SLOT / FRQ #
G L1C                                                       SYS / PHASE SHIFT
R L1C                                                       SYS / PHASE SHIFT
C L2I                                                       SYS / PHASE SHIFT
 C1C    0,000 C1P    0,000 C2C    0,000 C2P    0,000        GLONASS COD/PHS/BIS
                                                            END OF HEADER
> 2021 12 24 10 56 23,4433631  0 12                      
G07  22481642,07824        -0,00024     -2446,75024        28,30024
G09  25027265,28024        -0,00024     -3149,55024        25,20024
G13  21214696,96624         0,00024      2034,70024        25,30024
G14  21727543,83026         0,00026      2325,14426        39,70026
G20  20841817,50526        -0,00026     -1838,58126        35,70026
G30  20839436,85324        -0,00024     -1281,55024        24,50024
R09  22256894,56824         0,00024      4023,35024        28,50024
R15  20926821,55823        -0,00023     -3130,95023        22,60023
R05  21036821,40725        -0,00025     -2840,68525        30,50025
C14                         0,00023       175,00023        19,90023
C10  38738036,81024         0,00024       416,30024        26,40024
C07  39105103,89524         0,00024        36,55024        29,20024
> 2021 12 24 10 56 24,4433631  0 13                      
G05  20793747,45423         0,00023       264,40023        20,80023
G07  22482103,33024        -0,00024     -2447,05024        25,40024
G09  25027893,51623        -0,00023     -3144,35023        22,50023
G13  21214289,41924         0,00024      2033,75024        27,40024
G14  21727103,00526         0,00026      2323,70226        41,20026
G20  20842167,83326        -0,00026     -1839,89826        35,70026
G30  20839670,56224        -0,00024     -1283,75024        25,20024
R09  22256180,63324         0,00024      4020,90024        25,30024
R15  20927522,04423        -0,00023     -3125,60023        22,90023
R05  21037345,61525        -0,00025     -2842,06025        31,10025
C10  38737959,33523         0,00023       414,00023        23,10023
C07  39105090,87524         0,00024        36,15024        27,10024
C05  39664343,81224        -0,00024       -17,20024        24,30024
> 2021 12 24 10 56 25,4433631  0 11                      
G05  20793694,86224         0,00024       259,05024        24,10024
G07  22482582,57024        -0,00024     -2443,85024        26,50024
G13  21213894,76424         0,00024      2032,70024        27,10024
G14  21726657,98527         0,00027      2320,94227        41,60027
G20  20842518,76226        -0,00026     -1842,78926        36,40026
G30  20839899,17624        -0,00024     -1286,30024        25,60024
R09  22255321,00024         0,00024      4019,35024        25,20024
R15  20928009,37824        -0,00024     -3135,30024        24,80024
R05  21037865,32724        -0,00024     -2843,80024        27,30024
C14  21472148,87823         0,00023       165,70023        22,30023
C07  39105090,74724         0,00024        33,50024        27,20024
> 2021 12 24 10 56 26,4433631  0 12                      
G05  20793624,88923         0,00023       258,10023        22,00023
G07  22483030,03824        -0,00024     -2444,70024        27,30024
G13  21213527,69724         0,00024      2033,85024        27,30024
G14  21726215,37027         0,00027      2322,92327        41,60027
G20  20842869,39826        -0,00026     -1840,90226        36,40026
G30  20840143,38524        -0,00024     -1284,40024        23,90024
R09  22254632,25524         0,00024      4023,35024        26,10024
R15  20928599,24924        -0,00024     -3130,20024        24,60024
R05  21038423,41924        -0,00024     -2838,40024        24,60024
C14  21472103,78824         0,00024       168,20024        25,10024
C10  38737796,89823         0,00023       412,70023        20,70023
C07  39105071,43924         0,00024        35,55024        26,60024
> 2021 12 24 10 56 27,4433631  0 13                      
G05  20793629,84023         0,00023       261,30023        23,40023
G07  22483493,07224        -0,00024     -2445,55024        26,30024
G13  21213147,11424         0,00024      2031,55024        27,90024
G14  21725776,92827         0,00027      2320,59427        41,70027
G20  20843219,70926        -0,00026     -1843,33826        36,20026
G30  20840409,15524        -0,00024     -1285,40024        24,10024
R06                         0,00022      1279,25022        14,40022
R09  22253885,02624         0,00024      4020,30024        27,40024
R15  20929148,02324        -0,00024     -3135,65024        24,40024
R05  21038891,84824        -0,00024     -2843,95024        24,90024
C14  21472085,35524         0,00024       164,50024        24,40024
C07  39105070,99324         0,00024        31,65024        25,60024
C05  39664347,31424         0,00024        37,85024        24,10024
> 2021 12 24 10 56 28,4433631  0 11                      
G07  22483975,29424        -0,00024     -2450,90024        27,40024
G13  21212733,55624         0,00024      2030,00024        26,60024
G14  21725331,89227         0,00027      2319,47127        41,70027
G20  20843573,62026        -0,00026     -1844,55126        36,50026
G30  20840640,75124        -0,00024     -1286,25024        23,50024
R09  22253116,21424         0,00024      4017,05024        27,10024
R15  20929751,66123        -0,00023     -3137,75023        23,40023
R05  21039498,48424        -0,00024     -2845,25024        24,60024
C14  21472062,12724         0,00024       159,95024        26,90024
C10  38737620,33023         0,00023       419,75023        20,90023
C07  39105072,04824         0,00024        34,90024        26,60024
> 2021 12 24 10 56 29,4433631  0 11                      
G05  20793501,44523         0,00023       258,60023        21,50023
G07  22484443,03124        -0,00024     -2451,30024        27,70024
G13  21212356,17824         0,00024      2027,95024        25,40024
G14  21724892,45727         0,00027      2316,90027        41,70027
G20  20843924,73826        -0,00026     -1847,26626        36,60026
G30  20840888,14024        -0,00024     -1285,20024        25,70024
R09  22252377,88624         0,00024      4015,15024        26,90024
R15  20930326,12424        -0,00024     -3137,75024        24,70024
R05  21040035,17424        -0,00024     -2851,75024        25,70024
C14  21472037,30524         0,00024       161,25024        24,70024
C07  39105063,71524         0,00024        25,10024        27,00024
> 2021 12 24 10 56 30,4433631  0 12                      
G05  20793423,79923         0,00023       257,65023        21,70023
G07  22484903,51224        -0,00024     -2453,25024        27,00024
G13  21211976,64124         0,00024      2026,90024        25,30024
G14  21724449,36327         0,00027      2316,03527        41,90027
G20  20844272,49726        -0,00026     -1848,21426        36,20026
G30  20841144,16324        -0,00024     -1288,70024        27,00024
R09  22251601,42424         0,00024      4017,05024        25,20024
R15  20930903,22424        -0,00024     -3136,75024        24,30024
R05  21040533,72824        -0,00024     -2850,85024        26,50024
C14  21471982,44323         0,00023       166,90023        22,80023
C07  39105059,81724         0,00024        28,60024        26,10024
C05  39664362,22024        -0,00024       -52,40024        23,70024
> 2021 12 24 10 56 31,4433631  0 12                      
G05  20793392,27023         0,00023       255,25023        22,90023
G07  22485386,12724        -0,00024     -2450,10024        27,60024
G13  21211568,27324         0,00024      2027,70024        26,10024
G14  21724010,41727         0,00027      2315,66727        41,50027
G20  20844624,40326        -0,00026     -1848,63926        37,10026
G30  20841403,13324        -0,00024     -1291,21124        29,00024
R09  22250837,20224         0,00024      4016,65024        27,10024
R15  20931499,46124        -0,00024     -3135,30024        25,20024
R05  21041076,30224        -0,00024     -2845,75024        27,50024
C14  21471966,20324         0,00024       169,45024        24,50024
C10                         0,00023       421,65023        19,10023
C07  39105042,67824         0,00024        29,90024        26,70024
> 2021 12 24 10 56 32,4433631  0 11                      
G05  20793349,37923         0,00023       264,15023        23,10023
G07  22485829,49924        -0,00024     -2445,85024        26,80024
G13  21211203,40524         0,00024      2035,80024        24,40024
G14  21723571,20026         0,00026      2323,08726        41,40026
G20  20844981,43526        -0,00026     -1841,31426        36,80026
G30  20841644,44525        -0,00025     -1282,98525        30,30025
R09  22250103,88924         0,00024      4024,05024        27,20024
R15  20932080,13824        -0,00024     -3131,20024        25,40024
R05  21041611,71024        -0,00024     -2843,30024        28,30024
C14  21471929,00824         0,00024       168,20024        25,60024
C07  39105048,35324         0,00024        35,70024        27,50024
> 2021 12 24 10 56 33,4433632  0 13                      
G05  20793244,46423         0,00023       260,65023        22,10023
G07  22486329,56624        -0,00024     -2441,65024        26,90024
G09                        -0,00022     -3148,60022        16,70022
G13  21210843,66624         0,00024      2038,30024        23,60024
G14  21723156,89927         0,00027      2323,52227        41,50027
G20  20845359,78626        -0,00026     -1840,95326        37,60026
G30  20841933,15825        -0,00025     -1282,65225        31,40025
R09  22249390,69524         0,00024      4025,95024        28,70024
R15  20932769,97324        -0,00024     -3132,15024        26,10024
R05  21042163,64124        -0,00024     -2842,50024        28,50024
C14  21471928,42124         0,00024       170,15024        25,30024
C07  39105063,05624         0,00024        37,95024        26,70024
C05  39664390,64224        -0,00024       -63,15024        23,60024
> 2021 12 24 10 56 34,4433632  0 10                      
G07  22486790,83524        -0,00024     -2451,79024        28,80024
G13  21210430,44124         0,00024      2026,45024        24,90024
G14  21722714,59426         0,00026      2314,62926        41,30026
G20  20845709,83226        -0,00026     -1849,96726        37,10026
G30  20842167,78424        -0,00024     -1291,38124        28,80024
R09  22248646,19924         0,00024      4014,10024        28,50024
R15  20933346,66224        -0,00024     -3139,55024        24,00024
R05  21042702,55724        -0,00024     -2852,50024        27,40024
C14  21471890,23624         0,00024       159,95024        24,80024
C07  39105062,64524         0,00024        32,25024        27,30024
> 2021 12 24 10 56 35,4433632  0 10                      
G07  22487258,66224        -0,00024     -2456,50024        26,50024
G13  21210052,55423         0,00023      2020,20023        22,20023
G14  21722280,64626         0,00026      2311,00826        41,00026
G20  20846061,04026        -0,00026     -1853,65426        37,00026
G30  20842425,15724        -0,00024     -1295,00724        29,30024
R09  22247889,67424         0,00024      4011,40024        28,00024
R15  20933889,43823        -0,00023     -3145,30023        23,10023
R05  21043226,44524        -0,00024     -2855,80024        27,40024
C14  21471861,30724         0,00024       157,75024        24,70024
C07  39105052,30324         0,00024        26,55024        26,50024
> 2021 12 24 10 56 36,4433632  0 12                      
G05                         0,00023       248,20023        18,80023
G07  22487736,92224        -0,00024     -2454,89524        28,90024
G13  21209656,31824         0,00024      2024,45024        23,50024
G14  21721837,34327         0,00027      2310,67527        41,50027
G20  20846416,98426        -0,00026     -1854,09026        36,70026
G30  20842667,18025        -0,00025     -1295,08425        29,70025
R09  22247143,28124         0,00024      4011,70024        25,10024
R05  21043804,53524        -0,00024     -2856,20024        26,40024
C14  21471818,52723         0,00023       157,90023        23,20023
C10                         0,00023       414,75023        17,90023
C07  39105048,19624         0,00024        28,55024        25,70024
C05  39664411,45724        -0,00024       -73,55024        24,60024
> 2021 12 24 10 56 37,4433632  0 10                      
G07  22488209,55124        -0,00024     -2450,61224        28,90024
G13  21209287,13124         0,00024      2027,65024        24,40024
G14  21721398,90327         0,00027      2314,58627        41,60027
G20  20846769,69626        -0,00026     -1850,29826        36,80026
G30  20842913,76625        -0,00025     -1291,05025        30,30025
R09  22246382,86424         0,00024      4015,20024        24,90024
R15  20935061,27323        -0,00023     -3141,85023        21,10023
R05  21044296,35224        -0,00024     -2848,20024        26,10024
C14  21471804,59424         0,00024       154,75024        24,00024
C07  39105040,55924         0,00024        31,15024        26,20024
> 2021 12 24 10 56 38,4433632  0 12                      
G05                         0,00023       252,55023        19,80023
G07  22488670,81324        -0,00024     -2453,85024        28,30024
G13  21208893,08524         0,00024      2024,50024        25,00024
G14  21720958,68926         0,00026      2312,41626        41,10026
G20  20847116,13826        -0,00026     -1852,51726        37,10026
G30  20843161,87525        -0,00025     -1293,22825        31,60025
R09  22245486,36623         0,00023      4012,80023        23,00023
R15  20935702,11124        -0,00024     -3145,60024        23,80024
R05  21044793,28824        -0,00024     -2853,45024        25,00024
C14  21471775,09524         0,00024       159,65024        24,90024
C10  38736873,71623         0,00023       413,55023        20,60023
C07  39105053,63024         0,00024        27,80024        26,40024
> 2021 12 24 10 56 39,4433632  0 13                      
G05  20793058,86723         0,00023       249,85023        21,30023
G07  22489139,19524        -0,00024     -2449,93724        28,90024
G13  21208533,14024         0,00024      2025,55024        24,30024
G14  21720515,40226         0,00026      2314,62126        41,10026
G20  20847468,80026        -0,00026     -1850,42026        38,10026
G30  20843413,50725        -0,00025     -1290,78125        31,30025
R06                         0,00022      1266,15022        14,50022
R15  20936236,44724        -0,00024     -3141,45024        24,10024
R05  21045361,20224        -0,00024     -2849,45024        25,30024
C14  21471750,91824         0,00024       160,35024        25,90024
C10  38736785,08423         0,00023       416,05023        21,80023
C07  39105027,95424         0,00024        32,30024        27,50024
C05  39664408,60324         0,00024        16,65024        24,00024
> 2021 12 24 10 56 40,4433632  0 10                      
G05  20793011,83423         0,00023       254,25023        21,70023
G07  22489593,71524        -0,00024     -2451,56824        29,10024
G13  21208123,95824         0,00024      2024,15024        23,60024
G14  21720079,53826         0,00026      2312,89226        41,00026
G20  20847826,48626        -0,00026     -1852,21526        37,80026
G30  20843661,77025        -0,00025     -1292,50925        31,30025
R15  20936868,44424        -0,00024     -3140,65024        23,50024
R05  21045861,29024        -0,00024     -2852,50024        24,30024
C14  21471710,18124         0,00024       159,20024        26,10024
C07  39105029,18824         0,00024        31,00024        27,20024
> 2021 12 24 10 56 41,4433632  0 11                      
G05  20792949,03723         0,00023       247,75023        23,40023
G07  22490072,64325        -0,00025     -2451,13325        30,20025
G13  21207744,88024         0,00024      2026,05024        25,40024
G14  21719633,00727         0,00027      2312,94227        41,70027
G20  20848177,70326        -0,00026     -1852,28826        36,80026
G30  20843899,66525        -0,00025     -1292,22225        31,20025
R09  22243372,23023         0,00023      4015,15023        20,40023
R15  20937401,33523        -0,00023     -3138,40023        23,20023
R05  21046421,46223        -0,00023     -2856,05023        21,90023
C14  21471679,76224         0,00024       156,90024        25,60024
C07  39105024,55124         0,00024        32,05024        26,90024
> 2021 12 24 10 56 42,4433632  0 12                      
G05  20792927,90323         0,00023       243,10023        22,80023
G07  22490535,97325        -0,00025     -2450,94225        30,00025
G13  21207359,19824         0,00024      2028,95024        25,30024
G14  21719193,96226         0,00026      2312,74926        41,40026
G20  20848523,21526        -0,00026     -1852,63826        37,10026
G30  20844156,73825        -0,00025     -1292,44625        31,60025
R09  22242623,20024         0,00024      4017,15024        27,50024
R15  20938037,34624        -0,00024     -3143,95024        24,20024
R05  21046978,32723        -0,00023     -2857,30023        21,50023
C14  21471643,93724         0,00024       159,15024        25,70024
C10  38736550,69123         0,00023       415,05023        20,10023
C07  39105022,60324         0,00024        28,50024        26,40024
> 2021 12 24 10 56 43,4433632  0 10                      
G05  20792852,54323         0,00023       247,30023        22,30023
G07  22490999,34025        -0,00025     -2453,45425        29,90025
G13  21206966,95724         0,00024      2024,10024        26,00024
G14  21718756,15326         0,00026      2309,98726        41,40026
G20  20848881,95426        -0,00026     -1855,40526        36,50026
G30  20844385,36725        -0,00025     -1295,07525        32,00025
R09  22241883,79924         0,00024      4012,50024        25,20024
R15  20938525,59523        -0,00023     -3147,05023        22,30023
C14  21471626,73724         0,00024       156,50024        25,80024
C07  39105021,29224         0,00024        24,25024        27,10024
> 2021 12 24 10 56 44,4433632  0 9                      
G07  22491466,01224        -0,00024     -2454,43324        29,00024
G13  21206593,31124         0,00024      2022,65024        25,40024
G14  21718315,95226         0,00026      2308,47126        41,40026
G20  20849237,70326        -0,00026     -1857,10526        36,70026
G30  20844641,28525        -0,00025     -1296,46825        32,40025
R09  22241115,32624         0,00024      4008,80024        26,50024
R05  21047979,71723        -0,00023     -2858,45023        20,20023
C14  21471595,75324         0,00024       150,80024        25,60024
C07  39105003,19924         0,00024        26,20024        28,10024
> 2021 12 24 10 56 45,4433632  0 13                      
G05  20792790,40023         0,00023       241,10023        21,50023
G07  22491951,39625        -0,00025     -2453,51025        29,80025
G13  21206193,40724         0,00024      2023,35024        25,40024
G14  21717877,97526         0,00026      2309,20426        41,40026
G20  20849590,87826        -0,00026     -1856,35526        37,30026
G30  20844886,53525        -0,00025     -1295,61425        33,10025
R09  22240365,86524         0,00024      4012,50024        27,00024
R15  20939752,86023        -0,00023     -3144,65023        22,10023
R05  21048526,85823        -0,00023     -2855,25023        22,60023
C14  21471563,09624         0,00024       158,65024        25,70024
C10  38736336,74223         0,00023       414,95023        20,60023
C07  39104998,12324         0,00024        29,20024        27,60024
C05  39664435,43223        -0,00023       -16,50023        22,50023
> 2021 12 24 10 56 46,4433632  0 12                      
G05  20792708,22724         0,00024       247,25024        23,90024
G07  22492394,15924        -0,00024     -2449,42724        29,40024
G13  21205799,15024         0,00024      2027,90024        24,70024
G14  21717440,24826         0,00026      2313,06526        41,40026
G20  20849937,40826        -0,00026     -1852,68826        37,70026
G30  20845142,22825        -0,00025     -1291,63825        33,20025
R06                         0,00022      1269,75022        15,90022
R09  22239589,07224         0,00024      4014,40024        28,60024
R15  20940362,30823        -0,00023     -3142,60023        22,60023
R05  21049095,23423        -0,00023     -2854,20023        23,20023
C14  21471527,99024         0,00024       162,60024        25,60024
C07  39105004,38824         0,00024        31,50024        27,50024
> 2021 12 24 10 56 47,4433632  0 10                      
G05  20792720,21723         0,00023       248,30023        22,40023
G07  22492874,12525        -0,00025     -2452,81225        30,20025
G13  21205425,60724         0,00024      2025,25024        25,50024
G14  21716996,55427         0,00027      2309,25127        41,60027
G20  20850295,95826        -0,00026     -1856,44326        35,60026
G30  20845388,95525        -0,00025     -1295,34425        33,30025
R09  22238852,48024         0,00024      4013,15024        28,20024
C14  21471510,00024         0,00024       158,00024        25,10024
C10  38736150,23923         0,00023       411,25023        20,70023
C07  39105001,38824         0,00024        28,30024        27,00024
> 2021 12 24 10 56 48,4433632  0 11                      
G07  22493343,76225        -0,00025     -2453,63625        30,30025
G13  21205038,73724         0,00024      2023,90024        26,30024
G14  21716559,01927         0,00027      2308,13427        41,60027
G20  20850650,47526        -0,00026     -1857,78326        35,90026
G30  20845629,85125        -0,00025     -1296,27225        34,20025
R09  22238102,86224         0,00024      4010,60024        28,10024
R15  20941554,44423        -0,00023     -3141,60023        20,10023
R05  21050171,05023        -0,00023     -2858,95023        21,50023
C14  21471481,38324         0,00024       156,40024        24,40024
C07  39104991,35824         0,00024        30,35024        27,00024
C05  39664433,16523         0,00023        24,00023        23,10023
> 2021 12 24 10 56 49,4433632  0 9                      
G05  20792554,00523         0,00023       241,30023        20,60023
G07  22493793,76125        -0,00025     -2454,55925        30,20025
G13  21204666,70524         0,00024      2024,80024        26,50024
G14  21716117,73527         0,00027      2306,89827        41,60027
G20  20851004,84026        -0,00026     -1859,02226        36,10026
G30  20845877,49025        -0,00025     -1297,42525        34,60025
R09  22237350,09324         0,00024      4009,75024        28,40024
C14  21471428,62924         0,00024       154,05024        25,00024
C07  39104991,06824         0,00024        26,85024        26,90024
> 2021 12 24 10 56 50,4433632  0 10                      
G07  22494274,89125        -0,00025     -2455,42325        29,90025
G13  21204275,13924         0,00024      2023,85024        26,20024
G14  21715680,30127         0,00027      2305,73327        41,90027
G20  20851357,65926        -0,00026     -1860,29326        35,70026
G30  20846108,59325        -0,00025     -1298,55525        29,50025
R09  22236629,95524         0,00024      4010,85024        27,60024
R05  21051260,46923        -0,00023     -2857,95023        20,10023
C14  21471412,40424         0,00024       151,45024        25,00024
C10                         0,00023       409,80023        19,20023
C07  39104978,14024         0,00024        23,20024        27,40024
> 2021 12 24 10 56 51,4433633  0 9                      
G05  20792520,07423         0,00023       240,85023        21,00023
G07  22494770,13125        -0,00025     -2455,21825        30,20025
G13  21203942,35324         0,00024      2021,60024        27,50024
G14  21715271,36727         0,00027      2305,64727        41,50027
G20  20851740,77726        -0,00026     -1860,53626        35,90026
G30  20846406,27025        -0,00025     -1298,70925        34,30025
R09  22235866,66624         0,00024      4009,35024        28,40024
C14  21471413,88624         0,00024       152,45024        24,40024
C07  39104998,21024         0,00024        25,55024        26,50024
> 2021 12 24 10 56 52,4433633  0 12                      
G07  22495245,34925        -0,00025     -2449,84325        30,10025
G09                        -0,00022     -3155,70022        15,60022
G13  21203567,05924         0,00024      2027,15024        25,30024
G14  21714832,51826         0,00026      2310,69426        41,40026
G20  20852090,38226        -0,00026     -1855,57626        35,90026
G30  20846638,65625        -0,00025     -1293,32025        33,80025
R09  22235140,01624         0,00024      4011,65024        27,20024
R05  21052316,36823        -0,00023     -2859,90023        20,60023
C14  21471380,05624         0,00024       155,80024        25,90024
C10  38735799,64723         0,00023       414,35023        20,90023
C07  39104994,95924         0,00024        33,85024        27,40024
C05  39664510,21423        -0,00023       -41,40023        22,50023
> 2021 12 24 10 56 53,4433633  0 11                      
G05                         0,00023       248,20023        19,20023
G07  22495699,12625        -0,00025     -2447,27125        30,20025
G13  21203154,43624         0,00024      2029,25024        25,80024
G14  21714391,71427         0,00027      2312,79527        41,60027
G20  20852448,52526        -0,00026     -1853,45026        36,30026
G30  20846896,36925        -0,00025     -1291,21725        34,70025
R09  22234385,63024         0,00024      4018,20024        28,00024
R15                        -0,00022     -3145,90022        17,10022
R05  21052834,90023        -0,00023     -2847,35023        22,60023
C14  21471355,36524         0,00024       156,00024        25,10024
C07  39104982,25924         0,00024        31,20024        27,00024
> 2021 12 24 10 56 54,4433633  0 9                      
G07  22496166,32125        -0,00025     -2454,03125        30,60025
G09                        -0,00023     -3158,75023        19,70023
G13  21202779,21424         0,00024      2022,90024        25,50024
G14  21713951,73727         0,00027      2305,99327        41,90027
G20  20852805,69626        -0,00026     -1860,41426        35,90026
G30  20847141,41725        -0,00025     -1297,96625        33,80025
R09  22233624,57524         0,00024      4008,05024        27,50024
C14  21471326,40324         0,00024       150,70024        25,40024
C07  39104987,47324         0,00024        31,35024        26,00024
> 2021 12 24 10 56 55,4433633  0 12                      
G05  20792312,63923         0,00023       234,45023        20,40023
G07  22496635,76025        -0,00025     -2456,02725        30,60025
G09  25046519,31323        -0,00023     -3154,60023        23,40023
G13  21202357,97023         0,00023      2018,05023        23,20023
G14  21713510,10726         0,00026      2303,27726        41,40026
G20  20853154,91825        -0,00025     -1863,29525        34,70025
G30  20847384,21325        -0,00025     -1300,34825        34,70025
R09  22232873,55924         0,00024      4006,05024        27,10024
R05  21053893,55024        -0,00024     -2859,00024        25,80024
C14  21471287,09424         0,00024       147,30024        24,60024
C07  39104979,94324         0,00024        22,20024        28,20024
C05  39664488,60324        -0,00024       -11,35024        25,10024
> 2021 12 24 10 56 56,4433633  0 12                      
G05  20792299,95023         0,00023       245,30023        21,70023
G07  22497116,83025        -0,00025     -2452,69825        30,80025
G09  25047143,68323        -0,00023     -3156,55023        21,40023
G13  21201985,53124         0,00024      2022,10024        25,60024
G14  21713076,80926         0,00026      2306,60126        41,30026
G20  20853522,96625        -0,00025     -1860,00225        33,90025
G30  20847632,04425        -0,00025     -1297,09625        34,90025
R09  22232067,02024         0,00024      4008,45024        26,20024
R05  21054456,46324        -0,00024     -2857,60024        28,10024
C14  21471260,91524         0,00024       154,45024        24,30024
C10                         0,00023       410,10023        19,70023
C07  39104973,25024         0,00024        28,85024        28,00024
> 2021 12 24 10 56 57,4433633  0 10                      
G07  22497572,45925        -0,00025     -2451,27625        29,90025
G09  25047740,81423        -0,00023     -3151,90023        22,80023
G13  21201626,02424         0,00024      2025,30024        25,00024
G14  21712636,05927         0,00027      2307,25927        41,70027
G20  20853863,17526        -0,00026     -1859,35926        35,90026
G30  20847877,51925        -0,00025     -1296,30425        34,40025
R09  22231356,75624         0,00024      4012,95024        27,30024
R05  21054983,74225        -0,00025     -2857,38425        29,70025
C14  21471234,77724         0,00024       152,50024        25,60024
C07  39104964,80024         0,00024        26,25024        28,10024
> 2021 12 24 10 56 58,4433633  0 14                      
G05  20792177,82023         0,00023       246,30023        21,20023
G07  22498034,98024        -0,00024     -2449,08924        29,30024
G09  25048345,13724        -0,00024     -3149,90024        23,90024
G13  21201247,92724         0,00024      2022,15024        25,80024
G14  21712199,20326         0,00026      2309,50726        41,10026
G20  20854215,97226        -0,00026     -1857,30126        39,40026
G30  20848134,38225        -0,00025     -1293,94625        34,60025
R06                         0,00022      1267,20022        14,10022
R09  22230643,79124         0,00024      4014,30024        28,10024
R15                        -0,00022     -3141,70022        17,30022
R05  21055559,58524        -0,00024     -2856,00024        27,60024
C14  21471201,74224         0,00024       155,95024        26,10024
C07  39104970,13824         0,00024        31,65024        29,10024
C05  39664487,79223        -0,00023       -86,10023        23,30023
> 2021 12 24 10 56 59,4433633  0 12                      
G05  20792148,89623         0,00023       237,55023        21,30023
G07  22498490,52024        -0,00024     -2447,85024        28,40024
G09  25048884,02023        -0,00023     -3149,65023        21,70023
G13  21200891,92923         0,00023      2023,20023        23,30023
G14  21711758,66327         0,00027      2309,42327        41,50027
G20  20854573,48026        -0,00026     -1857,33326        38,30026
G30  20848377,07025        -0,00025     -1293,86625        33,80025
R09  22229862,08824         0,00024      4011,90024        27,70024
R15  20948025,68523        -0,00023     -3141,85023        21,60023
R05  21056079,88024        -0,00024     -2854,80024        28,30024
C14  21471174,01724         0,00024       158,00024        23,80024
C07  39104966,09624         0,00024        32,60024        28,00024
> 2021 12 24 10 57 00,4433633  0 11                      
G05  20792089,25823         0,00023       236,45023        22,00023
G07  22498973,80624        -0,00024     -2449,40024        28,40024
G09  25049519,90023        -0,00023     -3147,65023        22,20023
G13  21200462,64724         0,00024      2030,05024        26,10024
G14  21711317,09026         0,00026      2310,57226        41,40026
G20  20854924,55826        -0,00026     -1856,38226        38,80026
G30  20848629,51625        -0,00025     -1292,69425        34,10025
R09  22229128,81624         0,00024      4015,35024        28,20024
R05  21056593,44524        -0,00024     -2855,05024        28,20024
C14  21471142,85924         0,00024       159,85024        25,80024
C07  39104950,22824         0,00024        33,90024        27,90024
> 2021 12 24 10 57 01,4433633  0 10                      
G07  22499431,82424        -0,00024     -2450,39524        28,50024
G09  25050139,80523        -0,00023     -3153,80023        22,60023
G13  21200070,45324         0,00024      2026,55024        25,10024
G14  21710878,72826         0,00026      2307,24326        41,10026
G20  20855278,54726        -0,00026     -1859,78526        38,80026
G30  20848875,28025        -0,00025     -1295,92425        34,70025
R09  22228375,97224         0,00024      4013,95024        26,90024
R05  21057117,71724        -0,00024     -2857,40924        29,40024
C14  21471114,91324         0,00024       152,70024        26,00024
C07  39104953,76024         0,00024        29,30024        26,90024
> 2021 12 24 10 57 02,4433633  0 11                      
G05  20792011,04523         0,00023       237,40023        20,30023
G07  22499903,49524        -0,00024     -2454,48124        28,60024
G09  25050705,01223        -0,00023     -3155,40023        22,10023
G13  21199661,33423         0,00023      2023,35023        21,50023
G14  21710442,02826         0,00026      2302,83526        41,20026
G20  20855627,90426        -0,00026     -1864,22726        38,80026
G30  20849118,81025        -0,00025     -1300,11525        34,60025
R09  22227620,89324         0,00024      4008,30024        26,80024
R05  21057686,52124        -0,00024     -2858,85024        28,70024
C14  21471088,92924         0,00024       148,15024        26,70024
C07  39104944,56524         0,00024        28,00024        28,30024
> 2021 12 24 10 57 03,4433634  0 10                      
G05  20791948,41123         0,00023       230,90023        23,30023
G07  22500409,26824        -0,00024     -2454,09924        29,30024
G09  25051382,86623        -0,00023     -3152,25023        23,30023
G14  21710032,83427         0,00027      2302,79327        41,80027
G20  20856015,85826        -0,00026     -1864,38626        37,80026
G30  20849395,84125        -0,00025     -1300,11525        34,90025
R09  22226905,91124         0,00024      4009,11724        29,40024
R05  21058214,47925        -0,00025     -2861,69925        31,00025
C14  21471085,35424         0,00024       148,35024        26,30024
C07  39104962,57524         0,00024        26,95024        27,70024
> 2021 12 24 10 57 04,4433634  0 10                      
G07  22500845,67424        -0,00024     -2455,58424        28,80024
G09  25051994,05123        -0,00023     -3155,75023        22,80023
G13  21198973,24223         0,00023      2021,05023        21,70023
G14  21709592,64827         0,00027      2301,00527        42,00027
G20  20856371,62026        -0,00026     -1866,26126        37,90026
G30  20849637,38225        -0,00025     -1301,72825        34,80025
R09  22226128,45725         0,00025      4007,36025        29,50025
R05  21058762,70825        -0,00025     -2863,46525        31,00025
C14  21471057,68224         0,00024       146,90024        25,90024
C07  39104955,88824         0,00024        25,70024        27,40024
> 2021 12 24 10 57 05,4433634  0 10                      
G05                         0,00023       231,10023        19,50023
G07  22501338,94524        -0,00024     -2452,31224        29,10024
G09  25052560,17124        -0,00024     -3148,60024        23,60024
G14  21709155,66227         0,00027      2303,95727        41,70027
G20  20856726,08726        -0,00026     -1863,46026        37,00026
G30  20849894,11725        -0,00025     -1298,74025        34,90025
R09  22225411,46625         0,00025      4010,66925        29,50025
R05  21059284,15925        -0,00025     -2860,45825        31,60025
C14  21471006,82924         0,00024       151,95024        24,50024
C07  39104959,89824         0,00024        29,95024        29,00024
> 2021 12 24 10 57 06,4433634  0 11                      
G07  22501789,99425        -0,00025     -2453,29125        29,80025
G09  25053168,61124        -0,00024     -3150,15024        24,60024
G13  21198192,25623         0,00023      2024,30023        20,70023
G14  21708718,72627         0,00027      2302,50227        41,50027
G20  20857073,10825        -0,00025     -1865,04925        35,00025
G30  20850138,00926        -0,00026     -1299,94226        36,40026
R09  22224647,75524         0,00024      4010,15024        28,90024
R05  21059850,02825        -0,00025     -2861,67625        32,10025
C14  21471002,19324         0,00024       147,05024        24,30024
C07  39104945,66824         0,00024        25,00024        28,50024
C05  39664511,88923        -0,00023       -20,90023        20,70023
> 2021 12 24 10 57 07,4433634  0 10                      
G07  22502260,84425        -0,00025     -2455,47425        31,00025
G09  25053770,17024        -0,00024     -3156,70024        25,90024
G14  21708278,20626         0,00026      2300,24726        40,90026
G20  20857442,32825        -0,00025     -1867,29425        33,20025
G30  20850378,31826        -0,00026     -1302,20926        36,50026
R09  22223884,95924         0,00024      4006,65024        25,60024
R05  21060400,92225        -0,00025     -2864,06625        32,10025
C14  21470979,28524         0,00024       148,95024        25,10024
C10                         0,00022       413,80022        16,90022
C07  39104937,75024         0,00024        25,80024        29,00024
> 2021 12 24 10 57 08,4433634  0 12                      
G05                         0,00023       231,90023        19,40023
G07  22502724,33725        -0,00025     -2456,20325        31,10025
G09  25054362,87524        -0,00024     -3152,60024        25,80024
G13  21197404,89123         0,00023      2020,55023        21,30023
G14  21707842,62326         0,00026      2299,31226        40,90026
G20  20857788,30325        -0,00025     -1868,20325        35,00025
G30  20850631,95726        -0,00026     -1303,03326        37,50026
R09  22223169,96924         0,00024      4004,55024        26,40024
R05  21060928,57225        -0,00025     -2865,14825        32,20025
C14  21470944,22424         0,00024       147,60024        25,10024
C10  38734533,39023         0,00023       408,85023        21,80023
C07  39104933,86724         0,00024        23,60024        29,00024
> 2021 12 24 10 57 09,4433634  0 10                      
G07  22503191,58525        -0,00025     -2456,80525        31,30025
G09  25054971,02424        -0,00024     -3156,30024        25,60024
G14  21707400,59926         0,00026      2298,32126        41,20026
G20  20858143,72826        -0,00026     -1869,40426        37,20026
G30  20850882,15526        -0,00026     -1303,93526        36,40026
R09  22222428,15324         0,00024      4005,64324        29,10024
R05  21061465,37125        -0,00025     -2865,98325        31,60025
C14  21470915,01524         0,00024       146,80024        26,50024
C07  39104930,74024         0,00024        24,56424        29,30024
C05  39664547,02524        -0,00024        -7,15024        24,20024
> 2021 12 24 10 57 10,4433634  0 12                      
G05                         0,00023       235,35023        19,40023
G07  22503668,45625        -0,00025     -2459,05325        32,00025
G09  25055578,00624        -0,00024     -3161,35024        26,10024
G13  21196608,71523         0,00023      2018,25023        20,00023
G14  21706968,50026         0,00026      2295,51626        41,20026
G20  20858499,18326        -0,00026     -1872,35326        35,90026
G30  20851127,58626        -0,00026     -1306,46026        36,50026
R06                         0,00022      1253,25022        14,50022
R09  22221627,60924         0,00024      4002,90024        27,70024
R05  21061998,00425        -0,00025     -2868,61325        31,90025
C14  21470896,62924         0,00024       142,45024        27,00024
C07  39104930,04225         0,00025        22,21025        29,90025
> 2021 12 24 10 57 11,4433634  0 10                      
G07  22504125,99825        -0,00025     -2459,73525        31,00025
G09  25056153,66624        -0,00024     -3157,80024        25,00024
G14  21706530,86226         0,00026      2294,59126        40,60026
G20  20858862,29125        -0,00025     -1873,25325        33,70025
G30  20851377,07226        -0,00026     -1307,51126        37,50026
R09  22220896,47424         0,00024      4002,75024        28,00024
R05  21062537,08925        -0,00025     -2869,67225        32,20025
C14  21470865,51024         0,00024       143,60024        26,10024
C10  38734295,78523         0,00023       409,05023        20,30023
C07  39104927,70224         0,00024        21,10024        29,00024
> 2021 12 24 10 57 12,4433634  0 9                      
G07  22504604,26925        -0,00025     -2457,23325        31,60025
G09  25056779,43524        -0,00024     -3156,90024        25,00024
G14  21706091,76827         0,00027      2297,13627        41,50027
G20  20859218,24626        -0,00026     -1870,74526        37,00026
G30  20851625,40326        -0,00026     -1304,84126        37,50026
R09  22220165,38224         0,00024      4004,95024        28,80024
R05  21063063,92725        -0,00025     -2867,14825        31,80025
R07                         0,00022      3745,65022        15,90022
C05  39664571,67124        -0,00024       -76,55024        24,50024
> 2021 12 24 10 57 13,4433634  0 10                      
G05                         0,00023       228,25023        18,90023
G07  22505058,73325        -0,00025     -2454,39825        30,00025
G09  25057364,00924        -0,00024     -3151,65024        23,60024
G14  21705658,24627         0,00027      2299,27027        43,00027
G20  20859561,48726        -0,00026     -1868,79526        35,80026
G30  20851870,01226        -0,00026     -1302,51226        36,70026
R09  22219364,31524         0,00024      4006,15024        27,40024
R05  21063635,01024        -0,00024     -2866,50024        27,90024
C14  21470812,52724         0,00024       144,95024        27,90024
C07  39104919,38824         0,00024        28,55024        27,10024
> 2021 12 24 10 57 14,4433634  0 10                      
G05  20791509,57823         0,00023       236,25023        22,20023
G07  22505545,37624        -0,00024     -2450,82124        28,80024
G13                         0,00023      2020,55023        19,90023
G14  21705221,82927         0,00027      2302,53127        43,40027
G20  20859922,81726        -0,00026     -1865,67926        36,50026
G30  20852121,01826        -0,00026     -1299,13226        37,30026
R09  22218629,90324         0,00024      4009,55024        27,80024
R05  21064127,94924        -0,00024     -2861,63924        29,30024
C14  21470768,53724         0,00024       154,75024        26,70024
C07  39104915,87124         0,00024        31,60024        27,50024
> 2021 12 24 10 57 15,4433634  0 11                      
G07  22506006,72225        -0,00025     -2451,07425        30,00025
G09                        -0,00023     -3156,05023        19,30023
G13  21194735,49623         0,00023      2025,65023        21,80023
G14  21704776,90227         0,00027      2302,00827        42,10027
G20  20860279,23526        -0,00026     -1866,13426        37,50026
G30  20852367,71226        -0,00026     -1299,52226        37,50026
R09  22217876,19024         0,00024      4006,30024        27,30024
R05  21064673,53625        -0,00025     -2861,91325        32,00025
C14  21470753,81324         0,00024       147,25024        28,80024
C07  39104896,35024         0,00024        31,85024        27,40024
C05  39664567,79724        -0,00024       -41,10024        26,10024
> 2021 12 24 10 57 16,4433635  0 9                      
G07  22506502,36025        -0,00025     -2462,36625        30,20025
G09  25059175,78123        -0,00023     -3158,50023        20,90023
G14  21704375,56127         0,00027      2290,57127        43,00027
G20  20860664,55026        -0,00026     -1877,73326        36,90026
G30  20852643,60326        -0,00026     -1310,88226        37,20026
R09  22217194,24424         0,00024      3998,90424        29,20024
R05  21065231,23125        -0,00025     -2873,65325        29,90025
C14  21470756,29224         0,00024       138,80024        29,00024
C07  39104930,30724         0,00024        16,25024        26,50024
> 2021 12 24 10 57 17,4433635  0 9                      
G05                         0,00023       217,60023        19,40023
G07  22506981,12124        -0,00024     -2466,30024        29,30024
G14  21703938,45627         0,00027      2286,15627        43,00027
G20  20861024,89326        -0,00026     -1882,26226        36,70026
G30  20852898,41826        -0,00026     -1315,20126        37,10026
R09  22216439,65825         0,00025      3994,70725        29,50025
R05  21065774,74724        -0,00024     -2877,96924        29,00024
C14  21470730,20224         0,00024       133,70024        28,20024
C07  39104931,19924         0,00024        15,95024        27,60024
> 2021 12 24 10 57 18,4433635  0 10                      
G05  20791387,29623         0,00023       210,40023        21,60023
G07  22507438,29825        -0,00025     -2469,24125        30,10025
G14  21703502,25227         0,00027      2282,84227        42,60027
G20  20861382,83926        -0,00026     -1885,63426        36,60026
G30  20853147,24026        -0,00026     -1318,39026        37,70026
R09  22215679,67924         0,00024      3991,50024        27,60024
R05  21066290,38424        -0,00024     -2881,34324        29,30024
C14  21470708,31224         0,00024       131,60024        27,90024
C07  39104921,00024         0,00024        14,50024        27,30024
C05  39664611,33524        -0,00024       -43,95024        25,90024
> 2021 12 24 10 57 19,4433635  0 9                      
G07  22507908,33725        -0,00025     -2469,49425        32,30025
G09                        -0,00023     -3162,55023        18,30023
G14  21703068,41626         0,00026      2282,16526        41,10026
G20  20861746,15225        -0,00025     -1886,36125        35,00025
G30  20853399,93026        -0,00026     -1318,94526        37,20026
R09  22214916,07224         0,00024      3990,60024        25,10024
R05  21066864,15125        -0,00025     -2881,84725        30,20025
C14  21470674,39924         0,00024       131,70024        26,90024
C07  39104921,86424         0,00024        11,90024        27,60024
> 2021 12 24 10 57 20,4433635  0 10                      
G07  22508366,24025        -0,00025     -2467,25025        31,70025
G13                         0,00023      2014,20023        18,50023
G14  21702633,23827         0,00027      2284,29927        41,90027
G20  20862102,72526        -0,00026     -1884,31726        37,80026
G30  20853647,97826        -0,00026     -1316,74926        37,00026
R09  22214167,90924         0,00024      3993,60024        26,90024
R05  21067382,01324        -0,00024     -2879,10024        28,90024
C14  21470648,13724         0,00024       130,30024        26,00024
C10                         0,00022       404,95022        16,50022
C07  39104925,88124         0,00024        12,50024        28,30024
> 2021 12 24 10 57 21,4433635  0 9                      
G07  22508846,73525        -0,00025     -2464,36125        32,40025
G14  21702196,36727         0,00027      2286,75027        41,50027
G20  20862460,90426        -0,00026     -1881,97326        38,70026
G30  20853896,73326        -0,00026     -1314,14426        37,60026
R09  22213416,25724         0,00024      3992,55024        26,20024
R05  21067962,03924        -0,00024     -2874,90024        28,60024
C14  21470623,48224         0,00024       132,40024        27,00024
C07  39104914,41624         0,00024        18,05024        28,90024
C05  39664594,55824         0,00024        36,55024        24,50024
> 2021 12 24 10 57 22,4433635  0 10                      
G07  22509315,96625        -0,00025     -2464,63325        32,50025
G09                        -0,00023     -3161,15023        19,20023
G14  21701764,42227         0,00027      2286,28127        41,60027
G20  20862817,71326        -0,00026     -1882,49526        38,70026
G30  20854150,11326        -0,00026     -1314,51526        37,70026
R06                         0,00022      1237,70022        14,40022
R09  22212689,91624         0,00024      3993,45024        27,50024
R05  21068481,03525        -0,00025     -2877,50925        29,50025
C14  21470601,95324         0,00024       133,25024        28,30024
C07  39104915,37224         0,00024        17,70024        28,80024
> 2021 12 24 10 57 23,4433635  0 9                      
G07  22509779,92525        -0,00025     -2465,14225        33,00025
G14  21701329,90426         0,00026      2285,34326        41,40026
G20  20863177,04526        -0,00026     -1883,53726        37,50026
G30  20854395,82426        -0,00026     -1315,34926        37,70026
R09  22211941,81424         0,00024      3994,60024        28,00024
R05  21069028,63725        -0,00025     -2878,49925        29,60025
C14  21470570,65524         0,00024       130,80024        28,10024
C10  38733399,84723         0,00023       406,65023        20,30023
C07  39104908,35725         0,00025        16,33625        29,50025
> 2021 12 24 10 57 24,4433635  0 9                      
G07  22510252,51625        -0,00025     -2466,86125        32,40025
G09  25063975,21123        -0,00023     -3162,25023        21,40023
G14  21700893,82426         0,00026      2283,27626        41,00026
G20  20863533,01726        -0,00026     -1885,78826        35,90026
G30  20854648,66726        -0,00026     -1317,21926        37,50026
R09  22211186,45524         0,00024      3993,15024        28,30024
R05  21069546,79625        -0,00025     -2880,43625        29,60025
C14  21470538,69524         0,00024       129,20024        28,10024
C07  39104909,67424         0,00024        15,00024        28,70024
> 2021 12 24 10 57 25,4433635  0 10                      
G07  22510727,69925        -0,00025     -2466,41325        32,80025
G09  25064587,39923        -0,00023     -3158,85023        22,90023
G14  21700458,83726         0,00026      2283,35426        41,00026
G20  20863905,97026        -0,00026     -1885,58326        35,70026
G30  20854900,50526        -0,00026     -1317,05826        37,70026
R09  22210434,28824         0,00024      3993,90024        28,30024
R05  21070077,74125        -0,00025     -2880,43825        30,40025
C14  21470520,12024         0,00024       132,65024        27,40024
C07  39104903,99024         0,00024        16,25024        28,00024
C05  39664619,50724        -0,00024        -6,95024        23,60024
> 2021 12 24 10 57 26,4433635  0 11                      
G05                         0,00022       213,35022        15,70022
G07  22511194,26825        -0,00025     -2467,84925        33,20025
G09  25065179,58023        -0,00023     -3165,00023        22,90023
G14  21700026,32726         0,00026      2281,72726        41,30026
G20  20864258,31826        -0,00026     -1887,33926        35,90026
G30  20855149,72326        -0,00026     -1318,62526        37,70026
R09  22209684,29924         0,00024      3992,50024        25,90024
R05  21070603,06825        -0,00025     -2882,05525        30,10025
C14  21470505,82124         0,00024       131,65024        27,20024
C10                         0,00023       402,25023        19,20023
C07  39104900,48424         0,00024        12,55024        28,50024
> 2021 12 24 10 57 27,4433635  0 8                      
G07  22511660,84025        -0,00025     -2469,81725        33,40025
G09  25065777,46224        -0,00024     -3169,35024        23,60024
G14  21699586,32726         0,00026      2279,31826        40,10026
G20  20864616,66525        -0,00025     -1889,85525        35,30025
G30  20855396,54826        -0,00026     -1320,89326        37,20026
R05  21071181,16325        -0,00025     -2884,55225        30,00025
C14  21470469,64224         0,00024       125,85024        27,40024
C07  39104893,08424         0,00024        11,55024        28,20024
> 2021 12 24 10 57 28,4433635  0 13                      
G05                         0,00023       210,85023        19,90023
G07  22512135,57925        -0,00025     -2467,80325        33,00025
G09  25066390,10523        -0,00023     -3162,85023        22,70023
G14  21699156,29326         0,00026      2281,09726        40,60026
G20  20864975,98426        -0,00026     -1888,21426        37,20026
G30  20855648,54126        -0,00026     -1318,99626        37,70026
R06                         0,00023      1234,55023        17,90023
R15                        -0,00023     -3180,30023        20,70023
R05  21071700,87125        -0,00025     -2882,73625        31,10025
C14  21470446,12624         0,00024       129,05024        27,20024
C10  38733009,70223         0,00023       403,40023        20,60023
C07  39104890,85424         0,00024        13,60024        28,60024
C05  39664639,94724        -0,00024       -53,20024        24,10024
> 2021 12 24 10 57 29,4433635  0 9                      
G07  22512600,93325        -0,00025     -2467,66425        33,00025
G09  25067005,65623        -0,00023     -3161,00023        22,40023
G14  21698717,17326         0,00026      2280,93726        40,50026
G20  20865330,11526        -0,00026     -1888,49026        37,80026
G30  20855901,64226        -0,00026     -1319,11526        38,00026
R15                        -0,00023     -3180,10023        20,40023
R05  21072222,88625        -0,00025     -2882,79025        31,70025
C14  21470430,01324         0,00024       127,70024        29,20024
C07  39104893,02925         0,00025        13,86625        29,70025
> 2021 12 24 10 57 30,4433635  0 11                      
G05  20790860,56323         0,00023       207,05023        20,70023
G07  22513071,70125        -0,00025     -2471,54025        33,30025
G09  25067593,34223        -0,00023     -3165,85023        22,50023
G14  21698284,06726         0,00026      2276,71626        40,40026
G20  20865695,05626        -0,00026     -1892,70926        37,80026
G30  20856157,15926        -0,00026     -1323,13326        37,90026
R09  22206658,92623         0,00023      3987,45023        20,70023
R15                        -0,00023     -3179,50023        20,70023
R05  21072780,59425        -0,00025     -2886,93325        30,80025
C14  21470400,72724         0,00024       124,40024        28,10024
C07  39104888,62524         0,00024        10,12724        29,40024
> 2021 12 24 10 57 31,4433635  0 11                      
G07  22513543,17625        -0,00025     -2469,72725        33,30025
G09  25068210,21723        -0,00023     -3164,40023        21,70023
G14  21697850,46826         0,00026      2278,11926        40,00026
G20  20866051,71126        -0,00026     -1891,43626        37,60026
G30  20856406,78826        -0,00026     -1321,65426        38,10026
R09  22205948,91925         0,00025      3989,16225        30,10025
R15                        -0,00023     -3180,30023        20,90023
R05  21073324,61924        -0,00024     -2885,43324        29,40024
C14  21470372,44824         0,00024       123,30024        28,00024
C07  39104885,82825         0,00025        11,76325        29,70025
C05  39664654,40924        -0,00024        -7,60024        24,90024
> 2021 12 24 10 57 32,4433635  0 11                      
G05  20790763,99823         0,00023       202,30023        20,10023
G07  22514011,51825        -0,00025     -2471,77725        32,80025
G13                         0,00022      2004,60022        16,70022
G14  21697414,63726         0,00026      2275,82826        40,80026
G20  20866413,32726        -0,00026     -1893,82926        36,10026
G30  20856655,08226        -0,00026     -1323,80426        38,40026
R09  22205219,89024         0,00024      3985,65024        27,50024
R15                        -0,00023     -3179,80023        20,80023
R05  21073867,30924        -0,00024     -2887,05024        28,70024
C14  21470350,93024         0,00024       125,25024        28,60024
C07  39104880,79924         0,00024        10,70024        29,10024
> 2021 12 24 10 57 33,4433635  0 11                      
G05  20790757,28524         0,00024       200,05024        23,60024
G07  22514479,67725        -0,00025     -2472,91125        34,10025
G09  25069370,06323        -0,00023     -3170,10023        21,40023
G14  21696986,11626         0,00026      2274,34326        40,80026
G20  20866778,35725        -0,00025     -1895,44725        33,70025
G30  20856908,89026        -0,00026     -1325,21026        38,20026
R09  22204421,12624         0,00024      3981,10024        24,00024
R15                        -0,00023     -3179,10023        21,70023
R05  21074387,33224        -0,00024     -2890,00024        28,70024
C14  21470328,02824         0,00024       121,45024        27,60024
C07  39104882,78025         0,00025         8,95925        30,00025
> 2021 12 24 10 57 34,4433635  0 14                      
G05  20790729,91623         0,00023       203,75023        21,40023
G07  22514948,16425        -0,00025     -2472,32125        34,00025
G09  25069984,84923        -0,00023     -3167,80023        22,10023
G13  21187477,35323         0,00023      1996,25023        20,70023
G14  21696556,12526         0,00026      2274,59026        41,10026
G20  20867136,82025        -0,00025     -1895,21825        33,00025
G30  20857162,12626        -0,00026     -1324,83726        38,60026
R06                         0,00022      1227,95022        17,20022
R09  22203701,23624         0,00024      3988,70024        23,60024
R15                        -0,00023     -3178,90023        21,60023
R05  21074905,88524        -0,00024     -2891,10024        27,80024
C14  21470304,55624         0,00024       124,65024        27,10024
C07  39104882,99224         0,00024         9,27824        29,40024
C05  39664671,95824        -0,00024       -45,00024        24,40024
> 2021 12 24 10 57 35,4433635  0 10                      
G05  20790690,66224         0,00024       210,90024        24,00024
G07  22515422,15525        -0,00025     -2468,63925        34,00025
G09  25070583,25423        -0,00023     -3164,10023        22,60023
G14  21696121,14526         0,00026      2277,90326        40,80026
G20  20867499,58825        -0,00025     -1891,94625        32,50025
G30  20857414,57026        -0,00026     -1321,40726        38,80026
R09  22202950,57524         0,00024      3988,90024        26,80024
R05  21075498,29424        -0,00024     -2886,75024        28,20024
C14  21470281,19124         0,00024       126,55024        28,40024
C07  39104879,11325         0,00025        12,99325        29,50025
> 2021 12 24 10 57 36,4433635  0 12                      
G05  20790656,72923         0,00023       196,20023        21,80023
G07  22515893,97225        -0,00025     -2471,50725        33,70025
G09  25071189,97723        -0,00023     -3160,70023        22,80023
G13  21186722,13823         0,00023      2001,45023        20,30023
G14  21695685,79026         0,00026      2274,80626        41,00026
G20  20867858,68325        -0,00025     -1895,08925        32,70025
G30  20857664,54026        -0,00026     -1324,39926        38,70026
R09  22202186,64724         0,00024      3986,65024        27,30024
R15  20970093,90724        -0,00024     -3181,00024        23,90024
R05  21076025,27224        -0,00024     -2891,95024        28,40024
C14  21470255,95224         0,00024       121,55024        27,70024
