# 
# Header Description:
# 
# Version: v3.0.0.1 Platform: 9 Manufacturer: Xiaomi Model: MI 8
# 
# Raw,utcTimeMillis,TimeNanos,LeapSecond,TimeUncertaintyNanos,FullBiasNanos,BiasNanos,BiasUncertaintyNanos,DriftNanosPerSecond,DriftUncertaintyNanosPerSecond,HardwareClockDiscontinuityCount,Svid,TimeOffsetNanos,State,ReceivedSvTimeNanos,ReceivedSvTimeUncertaintyNanos,Cn0DbHz,PseudorangeRateMetersPerSecond,PseudorangeRateUncertaintyMetersPerSecond,AccumulatedDeltaRangeState,AccumulatedDeltaRangeMeters,AccumulatedDeltaRangeUncertaintyMeters,CarrierFrequencyHz,CarrierCycles,CarrierPhase,CarrierPhaseUncertainty,MultipathIndicator,SnrInDb,ConstellationType,AgcDb,BasebandCn0DbHz,FullInterSignalBiasNanos,FullInterSignalBiasUncertaintyNanos,SatelliteInterSignalBiasNanos,SatelliteInterSignalBiasUncertaintyNanos,CodeType,ChipsetElapsedRealtimeNanos
# 
# UncalAccel,utcTimeMillis,elapsedRealtimeNanos,UncalAccelXMps2,UncalAccelYMps2,UncalAccelZMps2,BiasXMps2,BiasYMps2,BiasZMps2
# 
# UncalGyro,utcTimeMillis,elapsedRealtimeNanos,UncalGyroXRadPerSec,UncalGyroYRadPerSec,UncalGyroZRadPerSec,DriftXRadPerSec,DriftYRadPerSec,DriftZRadPerSec
# 
# UncalMag,utcTimeMillis,elapsedRealtimeNanos,UncalMagXMicroT,UncalMagYMicroT,UncalMagZMicroT,BiasXMicroT,BiasYMicroT,BiasZMicroT
# 
# OrientationDeg,utcTimeMillis,elapsedRealtimeNanos,yawDeg,rollDeg,pitchDeg
# 
# Fix,Provider,LatitudeDegrees,LongitudeDegrees,AltitudeMeters,SpeedMps,AccuracyMeters,BearingDegrees,UnixTimeMillis,SpeedAccuracyMps,BearingAccuracyDegrees,elapsedRealtimeNanos
# 
# Nav,Svid,Type,Status,MessageId,Sub-messageId,Data(Bytes)
# 
# Status,UnixTimeMillis,SignalCount,SignalIndex,ConstellationType,Svid,CarrierFrequencyHz,Cn0DbHz,AzimuthDegrees,ElevationDegrees,UsedInFix,HasAlmanacData,HasEphemerisData,BasebandCn0DbHz
# 
UncalMag,1613390936819,1521482049586,-297.31714,-47.702007,-497.2816,0.0,0.0,0.0
UncalGyro,1613390936821,1521484627295,0.085228086,0.19048448,0.005912911,0.007268,-0.003362,0.007032
UncalAccel,1613390936816,1521479747295,-0.18992963,0.23890877,9.794794,0.0,0.0,0.0
UncalMag,1613390936829,1521492049586,-297.15607,-47.815037,-496.66345,0.0,0.0,0.0
OrientationDeg,1613390936830,1521493195055,62,0,-1
UncalAccel,1613390936826,1521489735055,-0.21148536,0.24369892,9.766052,0.0,0.0,0.0
UncalGyro,1613390936831,1521494615055,0.07244391,0.16225275,0.0069782594,0.007268,-0.003362,0.007032
OrientationDeg,1613390936844,1521506524118,62,1,-1
UncalMag,1613390936839,1521502049586,-297.33417,-47.710796,-498.044,0.0,0.0,0.0
UncalGyro,1613390936841,1521504602816,0.053800315,0.11963883,0.008043608,0.007268,-0.003362,0.007032
UncalAccel,1613390936836,1521499722816,-0.23304108,0.26285958,9.744497,0.0,0.0,0.0
UncalMag,1613390936849,1521512049586,-296.88638,-48.201675,-497.39963,0.0,0.0,0.0
UncalGyro,1613390936851,1521514590576,0.031428006,0.06583876,0.0069782594,0.007268,-0.003362,0.007032
UncalAccel,1613390936846,1521509710576,-0.24501649,0.2604645,9.737311,0.0,0.0,0.0
UncalMag,1613390936859,1521522049586,-296.06128,-47.42124,-497.1517,0.0,0.0,0.0
UncalGyro,1613390936861,1521524578336,0.0063923257,0.0029832218,0.008043608,0.007268,-0.003362,0.007032
UncalAccel,1613390936857,1521519698336,-0.23783123,0.24848908,9.763659,0.0,0.0,0.0
UncalMag,1613390936870,1521532049586,-296.95078,-48.90259,-498.4179,0.0,0.0,0.0
UncalAccel,1613390936866,1521529686097,-0.23543614,0.246094,9.809164,0.0,0.0,0.0
UncalGyro,1613390936871,1521534566097,-0.014914636,-0.050284185,0.008576281,0.007268,-0.003362,0.007032
OrientationDeg,1613390936856,1521519830107,62,1,-1
OrientationDeg,1613390936870,1521533195784,62,1,-1
OrientationDeg,1613390936884,1521546520680,62,0,-1
OrientationDeg,1613390936896,1521559830316,62,0,-1
UncalMag,1613390936879,1521542049586,-296.89578,-48.473602,-497.075,0.0,0.0,0.0
UncalGyro,1613390936881,1521544553857,-0.029829511,-0.08544068,0.008576281,0.007268,-0.003362,0.007032
UncalAccel,1613390936877,1521539673857,-0.22825092,0.24848908,9.823534,0.0,0.0,0.0
UncalMag,1613390936889,1521552049586,-298.22363,-49.192146,-499.31015,0.0,0.0,0.0
UncalAccel,1613390936886,1521549661618,-0.20669517,0.2604645,9.83072,0.0,0.0,0.0
UncalGyro,1613390936891,1521554541618,-0.038352296,-0.10728031,0.009108955,0.007268,-0.003362,0.007032
UncalMag,1613390936899,1521562049586,-297.8144,-47.77081,-498.64908,0.0,0.0,0.0
UncalAccel,1613390936896,1521559649378,-0.19711488,0.2341186,9.840301,0.0,0.0,0.0
UncalGyro,1613390936902,1521564529378,-0.04474438,-0.12326053,0.009108955,0.007268,-0.003362,0.007032
OrientationDeg,1613390936910,1521573197295,62,1,-1
OrientationDeg,1613390936923,1521586516670,62,1,-1
UncalMag,1613390936909,1521572049586,-297.07693,-49.038643,-496.7292,0.0,0.0,0.0
UncalGyro,1613390936912,1521574517139,-0.046342403,-0.12752192,0.008576281,0.007268,-0.003362,0.007032
UncalAccel,1613390936907,1521569637139,-0.15879357,0.21974812,9.964845,0.0,0.0,0.0
UncalMag,1613390936919,1521582049586,-297.54227,-48.957417,-497.03915,0.0,0.0,0.0
UncalGyro,1613390936921,1521584504899,-0.025035443,-0.07531986,0.008043608,0.007268,-0.003362,0.007032
UncalAccel,1613390936916,1521579624899,-0.13723788,0.20537764,10.12292,0.0,0.0,0.0
OrientationDeg,1613390936936,1521599828961,61,1,-1
UncalAccel,1613390936927,1521589612659,-0.17555913,0.21735305,9.952869,0.0,0.0,0.0
UncalMag,1613390936930,1521592049586,-297.31683,-48.369526,-495.40274,0.0,0.0,0.0
UncalGyro,1613390936931,1521594492659,0.020241851,0.037607037,0.0075109336,0.007268,-0.003362,0.007032
UncalMag,1613390936939,1521602049586,-299.08017,-48.72437,-497.35754,0.0,0.0,0.0
UncalAccel,1613390936936,1521599600420,-0.19471979,0.23651367,9.821139,0.0,0.0,0.0
UncalGyro,1613390936942,1521604480420,0.038352765,0.07968829,0.008043608,0.007268,-0.003362,0.007032
OrientationDeg,1613390936950,1521613190732,61,1,-1
UncalMag,1613390936949,1521612049586,-297.52557,-48.28111,-498.1556,0.0,0.0,0.0
UncalAccel,1613390936946,1521609588180,-0.17555913,0.2341186,9.813954,0.0,0.0,0.0
UncalGyro,1613390936951,1521614468180,0.032493353,0.062110037,0.0075109336,0.007268,-0.003362,0.007032
OrientationDeg,1613390936963,1521626524014,61,1,-1
UncalMag,1613390936959,1521622049586,-298.34222,-49.591335,-496.53445,0.0,0.0,0.0
UncalGyro,1613390936962,1521624455941,0.020774525,0.036009014,0.0075109336,0.007268,-0.003362,0.007032
UncalAccel,1613390936956,1521619575941,-0.21388042,0.246094,9.821139,0.0,0.0,0.0
UncalMag,1613390936969,1521632049586,-297.21365,-48.51244,-497.37677,0.0,0.0,0.0
UncalGyro,1613390936971,1521634443753,0.007990348,0.0077772886,0.0075109336,0.007268,-0.003362,0.007032
UncalAccel,1613390936966,1521629563753,-0.19950995,0.24369892,9.809164,0.0,0.0,0.0
OrientationDeg,1613390936977,1521639857764,62,1,-1
UncalMag,1613390936979,1521642049586,-299.46564,-47.40012,-497.4509,0.0,0.0,0.0
UncalGyro,1613390936981,1521644431514,-0.0015977845,-0.01832374,0.008043608,0.007268,-0.003362,0.007032
UncalAccel,1613390936976,1521639551514,-0.20909029,0.22453828,9.821139,0.0,0.0,0.0
OrientationDeg,1613390936990,1521653195628,62,1,-1
UncalMag,1613390936989,1521652049586,-298.9058,-48.162846,-498.00833,0.0,0.0,0.0
UncalGyro,1613390936992,1521654419274,-0.0106532425,-0.03803268,0.008043608,0.007268,-0.003362,0.007032
UncalAccel,1613390936986,1521649539274,-0.20190504,0.24369892,9.83072,0.0,0.0,0.0
OrientationDeg,1613390937003,1521666520107,62,0,-1
UncalMag,1613390936999,1521662049586,-296.56738,-50.094387,-498.79184,0.0,0.0,0.0
UncalGyro,1613390937001,1521664407034,-0.017578006,-0.054545574,0.008043608,0.007268,-0.003362,0.007032
UncalAccel,1613390936996,1521659527034,-0.18274438,0.24130385,9.866646,0.0,0.0,0.0
UncalMag,1613390937009,1521672049586,-297.00525,-47.933342,-496.50275,0.0,0.0,0.0
UncalGyro,1613390937011,1521674394795,-0.018110681,-0.056143597,0.009108955,0.007268,-0.003362,0.007032
UncalAccel,1613390937007,1521669514795,-0.15400344,0.2221432,9.9313135,0.0,0.0,0.0
OrientationDeg,1613390937017,1521679830628,62,0,-1
UncalMag,1613390937019,1521682049586,-296.27493,-48.53717,-496.76666,0.0,0.0,0.0
UncalGyro,1613390937021,1521684382555,-0.0058591776,-0.025248501,0.008043608,0.007268,-0.003362,0.007032
UncalAccel,1613390937016,1521679502555,-0.16597882,0.20777273,9.967239,0.0,0.0,0.0
OrientationDeg,1613390937030,1521693201514,62,0,-1
UncalMag,1613390937030,1521692049586,-296.86285,-47.52185,-498.2111,0.0,0.0,0.0
UncalAccel,1613390937026,1521689490316,-0.1731641,0.2221432,9.895387,0.0,0.0,0.0
UncalGyro,1613390937031,1521694370316,0.012784414,0.018963443,0.008043608,0.007268,-0.003362,0.007032
OrientationDeg,1613390937043,1521706491253,62,1,-1
UncalMag,1613390937039,1521702049586,-296.54596,-48.28474,-495.71573,0.0,0.0,0.0
UncalAccel,1613390937037,1521699478076,-0.18992963,0.2341186,9.842695,0.0,0.0,0.0
UncalGyro,1613390937041,1521704358076,0.019709177,0.03387832,0.008043608,0.007268,-0.003362,0.007032
UncalMag,1613390937049,1521712049586,-296.39587,-48.136387,-496.33704,0.0,0.0,0.0
UncalAccel,1613390937046,1521709465836,-0.18513945,0.25088418,9.82593,0.0,0.0,0.0
UncalGyro,1613390937051,1521714345836,0.01598046,0.024290184,0.0069782594,0.007268,-0.003362,0.007032
OrientationDeg,1613390937057,1521719854534,62,1,-1
UncalMag,1613390937059,1521722049586,-297.13254,-47.135212,-497.4749,0.0,0.0,0.0
UncalAccel,1613390937056,1521719453597,-0.18034932,0.21735305,9.82593,0.0,0.0,0.0
UncalGyro,1613390937062,1521724333597,0.008523022,0.005646592,0.008043608,0.007268,-0.003362,0.007032
OrientationDeg,1613390937070,1521733187711,62,1,-1
UncalMag,1613390937069,1521732049586,-296.21216,-47.302937,-497.31244,0.0,0.0,0.0
UncalAccel,1613390937066,1521729441409,-0.1731641,0.23651367,9.82593,0.0,0.0,0.0
UncalGyro,1613390937071,1521734321409,5.3291116E-4,-0.011931651,0.008576281,0.007268,-0.003362,0.007032
UncalMag,1613390937079,1521742049586,-297.82352,-48.71026,-496.44568,0.0,0.0,0.0
OrientationDeg,1613390937083,1521746518701,62,1,-1
UncalGyro,1613390937081,1521744309170,-0.0031958073,-0.023117807,0.008576281,0.007268,-0.003362,0.007032
UncalAccel,1613390937076,1521739429170,-0.17795426,0.22693336,9.8690405,0.0,0.0,0.0
UncalMag,1613390937089,1521752049586,-296.85233,-48.184097,-495.87482,0.0,0.0,0.0
UncalAccel,1613390937086,1521749416930,-0.16358376,0.23890877,9.888202,0.0,0.0,0.0
UncalGyro,1613390937091,1521754296930,-0.0047938293,-0.025248501,0.008576281,0.007268,-0.003362,0.007032
OrientationDeg,1613390937096,1521759825680,62,1,-1
UncalMag,1613390937099,1521762049586,-296.85233,-48.184097,-495.87482,0.0,0.0,0.0
UncalGyro,1613390937101,1521764284691,5.3291116E-4,-0.011398978,0.008043608,0.007268,-0.003362,0.007032
UncalAccel,1613390937096,1521759404691,-0.16118869,0.22693336,9.914548,0.0,0.0,0.0
OrientationDeg,1613390937110,1521773188909,62,0,-1
UncalMag,1613390937110,1521772049586,-297.5491,-48.960934,-497.34415,0.0,0.0,0.0
UncalAccel,1613390937106,1521769392451,-0.15879357,0.21735305,9.878621,0.0,0.0,0.0
UncalGyro,1613390937111,1521774272451,0.008523022,0.005646592,0.008043608,0.007268,-0.003362,0.007032
OrientationDeg,1613390937123,1521786517555,62,0,-1
UncalMag,1613390937119,1521782049586,-298.24716,-49.87197,-498.49866,0.0,0.0,0.0
UncalGyro,1613390937121,1521784260211,0.010653718,0.012571355,0.008043608,0.007268,-0.003362,0.007032
UncalAccel,1613390937117,1521779380211,-0.15879357,0.2221432,9.864251,0.0,0.0,0.0
Nav,14,1281,1,18,5,56,-112,81,-15,49,88,72,12,0,0,0,0,75,-83,-64,-34,75,-83,-64,-34,75,-83,-64,-34,75,-83,-64,-34,75,-83,-64,-34,-65,71,-64,-1,-67,-3,-1,-1
Nav,26,1281,1,18,5,56,-112,81,-15,49,88,75,9,10,-22,113,-106,-65,71,113,-67,-98,13,104,80,-97,-26,117,124,75,-83,-64,-34,75,-83,-64,-34,75,-83,-64,-34,75,-83,-64,-34
Nav,29,1281,1,18,5,56,-112,81,-15,49,88,75,9,10,-22,113,-106,-65,-9,118,-75,-78,-10,-41,38,-33,-106,87,47,41,32,-25,10,63,-53,35,93,39,23,71,-59,10,67,-23,57
Nav,35,1281,1,18,5,56,-112,81,-15,49,88,75,9,10,-22,113,-106,0,8,-120,53,49,-14,-105,-81,32,105,-88,-48,41,32,-25,10,63,-53,35,93,39,23,71,-59,10,67,-23,57
UncalMag,1613390937129,1521792049586,-297.32394,-47.705524,-497.58655,0.0,0.0,0.0
UncalGyro,1613390937131,1521794247972,0.009055696,0.008309962,0.008043608,0.007268,-0.003362,0.007032
UncalAccel,1613390937127,1521789367972,-0.1923247,0.23172352,9.849881,0.0,0.0,0.0
OrientationDeg,1613390937136,1521799856461,62,1,-1
UncalMag,1613390937140,1521802049586,-296.06732,-47.691414,-496.67465,0.0,0.0,0.0
UncalAccel,1613390937137,1521799355732,-0.18753454,0.23172352,9.849881,0.0,0.0,0.0
UncalGyro,1613390937142,1521804235732,0.0058596516,3.1985156E-4,0.0075109336,0.007268,-0.003362,0.007032
OrientationDeg,1613390937150,1521813156722,61,1,-1
UncalMag,1613390937149,1521812049586,-298.78577,-49.365353,-496.2443,0.0,0.0,0.0
UncalGyro,1613390937151,1521814223493,0.0010655853,-0.009268281,0.008043608,0.007268,-0.003362,0.007032
UncalAccel,1613390937146,1521809343493,-0.17555913,0.22693336,9.861856,0.0,0.0,0.0
UncalMag,1613390937160,1521822049586,-297.30692,-47.696735,-496.82413,0.0,0.0,0.0
UncalAccel,1613390937156,1521819331305,-0.18034932,0.21974812,9.866646,0.0,0.0,0.0
UncalGyro,1613390937161,1521824211305,5.3291116E-4,-0.012997,0.008043608,0.007268,-0.003362,0.007032
OrientationDeg,1613390937163,1521826512295,61,1,-1
Status,0,34,0,1,24,1575449984,23,00,341,00,79,00,1,1,1,
Status,0,34,1,1,24,1176450048,27,00,341,00,79,00,1,1,1,
Status,0,34,2,6,30,1575449984,20,00,283,00,75,00,1,1,1,
Status,0,34,3,6,30,1176450048,21,00,283,00,75,00,1,1,1,
Status,0,34,4,5,26,1575449984,26,00,320,00,73,00,1,1,1,
Status,0,34,5,3,9,1600875008,27,00,337,00,65,00,1,1,1,
Status,0,34,6,6,7,1575449984,17,00,263,00,57,00,0,1,1,
Status,0,34,7,1,12,1575449984,29,00,238,00,54,00,1,1,1,
Status,0,34,8,3,7,1604812544,26,00,245,00,50,00,1,1,1,
Status,0,34,9,1,15,1575449984,41,00,189,00,48,00,1,1,1,
Status,0,34,10,6,2,1575449984,27,00,56,00,46,00,1,1,1,
Status,0,34,11,1,19,1575449984,42,00,83,00,44,00,1,1,1,
Status,0,34,12,6,8,1575449984,38,00,184,00,37,00,1,1,1,
Status,0,34,13,6,8,1176450048,34,00,184,00,37,00,1,1,1,
Status,0,34,14,3,16,1601437440,19,00,58,00,36,00,1,1,1,
Status,0,34,15,5,14,1575449984,23,00,279,00,35,00,1,1,1,
Status,0,34,16,3,8,1605374976,21,00,316,00,35,00,1,1,1,
Status,0,34,17,5,29,1575449984,31,00,71,00,31,00,1,1,1,
Status,0,34,18,5,35,1575449984,42,00,131,00,30,00,1,1,1,
Status,0,34,19,3,18,1600312448,27,00,62,00,29,00,1,1,1,
Status,0,34,20,3,10,1598062464,18,00,277,00,28,00,1,1,1,
Status,0,34,21,5,24,1575449984,22,00,277,00,28,00,1,1,1,
Status,0,34,22,1,13,1575449984,39,00,153,00,23,00,1,1,1,
Status,0,34,23,3,19,1603687552,22,00,114,00,23,00,1,1,1,
Status,0,34,24,6,27,1575449984,18,00,251,00,21,00,0,1,1,
Status,0,34,25,5,5,1575449984,26,00,121,00,18,00,1,1,1,
Status,0,34,26,1,10,1575449984,16,00,294,00,18,00,1,1,1,
Status,0,34,27,1,23,1575449984,24,00,261,00,17,00,1,1,1,
Status,0,34,28,6,36,1575449984,36,00,81,00,15,00,1,1,1,
Status,0,34,29,6,36,1176450048,31,00,81,00,15,00,1,1,1,
Status,0,34,30,5,21,1575449984,10,00,197,00,13,00,0,1,1,
Status,0,34,31,5,10,1575449984,10,00,56,00,11,00,0,1,1,
Status,0,34,32,1,25,1575449984,31,00,239,00,11,00,1,1,1,
Status,0,34,33,1,25,1176450048,31,00,239,00,11,00,1,1,1,
UncalMag,1613390937169,1521832049586,-296.13074,-46.593227,-495.5317,0.0,0.0,0.0
Fix,GPS,44.4281970,8.7448250,61.104526,0.128931,4.000000,331.461029,1613390936999,0.018108578,41.950005,1521818489887
Raw,1613390936999,52017000000,,,-1297426102982961329,0.0,10.226430932068807,,,0,10,0.0,16392,130154920134208,1000000000,15.861197471618652,136.8256576687354,2.99792458E8,18,138.03144404739697,3.4028234663852886E38,1.57542003E9,,,,0,,1,48.812049865722656,,,,,,,
Raw,1613390936999,52017000000,,,-1297426102982961329,0.0,10.226430932068807,,,0,12,0.0,16431,130154930100469,47,23.27073860168457,-367.5490283771178,0.9040090013005355,20,-18517.86570359792,3.4028234663852886E38,1.57542003E9,,,,0,,1,48.812049865722656,,,,,,,
Raw,1613390936999,52017000000,,,-1297426102982961329,0.0,10.226430932068807,,,0,13,0.0,16431,130154921852446,15,37.13880157470703,726.09811336657,0.002526130061596632,17,38744.46585402339,0.001263065030798316,1.57542003E9,,,,0,,1,48.812049865722656,,,,,,,
Raw,1613390936999,52017000000,,,-1297426102982961329,0.0,10.226430932068807,,,0,14,0.0,16392,130154913964776,1000000000,7.0,691.3685609126437,2.99792458E8,20,1945.959529663211,3.4028234663852886E38,1.57542003E9,,,,0,,1,48.812049865722656,,,,,,,
Raw,1613390936999,52017000000,,,-1297426102982961329,0.0,10.226430932068807,,,0,15,0.0,16431,130154927786121,12,39.488426208496094,557.2916807736983,0.001927411649376154,17,29698.840884287278,9.63705824688077E-4,1.57542003E9,,,,0,,1,48.812049865722656,,,,,,,
Raw,1613390936999,52017000000,,,-1297426102982961329,0.0,10.226430932068807,,,0,17,0.0,16431,130154923763523,45,23.714305877685547,345.2516377532213,0.8829224117786856,20,17488.483924114633,3.4028234663852886E38,1.57542003E9,,,,0,,1,48.812049865722656,,,,,,,
Raw,1613390936999,52017000000,,,-1297426102982961329,0.0,10.226430932068807,,,0,19,0.0,16431,130154927840216,12,42.19861602783203,-3.96496454872036,0.0014871122548356652,17,-205.4052366227709,7.435561274178326E-4,1.57542003E9,,,,0,,1,48.812049865722656,,,,,,,
Raw,1613390936999,52017000000,,,-1297426102982961329,0.0,10.226430932068807,,,0,20,0.0,16392,130154918969350,1000000000,7.0,478.7968589816362,2.99792458E8,22,869.5623122901295,3.4028234663852886E38,1.57542003E9,,,,0,,1,48.812049865722656,,,,,,,
Raw,1613390936999,52017000000,,,-1297426102982961329,0.0,10.226430932068807,,,0,23,0.0,16431,130154920248933,50,22.485965728759766,455.69041900480124,0.9411248630211739,20,19427.967828230587,3.4028234663852886E38,1.57542003E9,,,,0,,1,48.812049865722656,,,,,,,
Raw,1613390936999,52017000000,,,-1297426102982961329,0.0,10.226430932068807,,,0,24,0.0,16431,130154932815564,120,11.712787628173828,-14.663526391467009,1.4242454149817565,20,-624.1929204755231,3.4028234663852886E38,1.57542003E9,,,,0,,1,48.812049865722656,,,,,,,
Raw,1613390936999,52017000000,,,-1297426102982961329,0.0,10.226430932068807,,,0,25,0.0,16431,130154918696660,30,28.95830535888672,-633.620829556683,0.006108072120696306,17,-30428.791697307668,0.003054036060348153,1.57542003E9,,,,0,,1,48.812049865722656,,,,,,,
Raw,1613390936999,52017000000,,,-1297426102982961329,0.0,10.226430932068807,,,0,28,0.0,16392,130154915891858,1000000000,10.293949127197266,634.4118000243752,2.99792458E8,20,27089.616045178565,3.4028234663852886E38,1.57542003E9,,,,1,,1,48.812049865722656,,,,,,,
Raw,1613390936999,52017000000,,,-1297426102982961329,0.0,10.226430932068807,,,0,32,0.0,16392,130154915388028,1000000000,7.0,-636.4156439731773,2.99792458E8,18,-644.3448144339992,3.4028234663852886E38,1.57542003E9,,,,0,,1,48.812049865722656,,,,,,,
Raw,1613390936999,52017000000,,,-1297426102982961329,0.0,10.226430932068807,,,0,24,0.0,16392,130154932815446,1000000000,16.565753936767578,-11.563797265783982,2.99792458E8,20,-3594.1337925506577,3.4028234663852886E38,1.17645005E9,,,,1,,1,8.687385559082031,,,,,,,
Raw,1613390936999,52017000000,,,-1297426102982961329,0.0,10.226430932068807,,,0,25,0.0,16393,130154918696657,11,30.798721313476562,-633.6369617145538,0.00661768764257431,17,-72350.79998874226,0.003308843821287155,1.17645005E9,,,,0,,1,8.687385559082031,,,,,,,
Raw,1613390936999,52017000000,,,-1297426102982961329,0.0,10.226430932068807,,,0,10,0.0,16392,54536926976601,1000000000,17.767253875732422,-456.136047123837,2.99792458E8,20,-10481.26313681846,3.4028234663852886E38,1.59806246E9,,,,0,,3,61.30692672729492,,,,,,,
Raw,1613390936999,52017000000,,,-1297426102982961329,0.0,10.226430932068807,,,0,6,0.0,16392,54536924062005,1000000000,7.0,867.31269888,2.99792458E8,20,19951.195286761733,3.4028234663852886E38,1.59975002E9,,,,1,,3,61.30692672729492,,,,,,,
Raw,1613390936999,52017000000,,,-1297426102982961329,0.0,10.226430932068807,,,0,18,0.0,32995,54536927422706,100,22.606691360473633,-47.87042484266496,0.9333888110634749,20,-1911.2916909075307,3.4028234663852886E38,1.60031245E9,,,,0,,3,61.30692672729492,,,,,,,
Raw,1613390936999,52017000000,,,-1297426102982961329,0.0,10.226430932068807,,,0,9,0.0,32995,54536934486680,83,24.906108856201172,4.656461836052269,0.8312572020260851,20,164.76696954659687,3.4028234663852886E38,1.60087501E9,,,,0,,3,61.30692672729492,,,,,,,
Raw,1613390936999,52017000000,,,-1297426102982961329,0.0,10.226430932068807,,,0,16,0.0,16427,8903540,142,18.197742462158203,520.8673912519803,1.1319205847893992,20,22516.246153299322,3.4028234663852886E38,1.60143744E9,,,,0,,3,61.30692672729492,,,,,,,
Raw,1613390936999,52017000000,,,-1297426102982961329,0.0,10.226430932068807,,,0,19,0.0,16491,925201825,102,22.357608795166016,-615.2327155951202,0.9441902205219921,20,-26693.643539004563,3.4028234663852886E38,1.60368755E9,,,,0,,3,61.30692672729492,,,,,,,
Raw,1613390936999,52017000000,,,-1297426102982961329,0.0,10.226430932068807,,,0,7,0.0,32995,54536932198076,100,22.567855834960938,387.3414606939573,0.9359940554012351,20,16718.714574026402,3.4028234663852886E38,1.60481254E9,,,,0,,3,61.30692672729492,,,,,,,
Raw,1613390936999,52017000000,,,-1297426102982961329,0.0,10.226430932068807,,,0,8,0.0,32994,54536928499189,1000000000,12.822092056274414,-342.4572512253726,2.99792458E8,20,-16044.08843750209,3.4028234663852886E38,1.60537498E9,,,,1,,3,61.30692672729492,,,,,,,
Raw,1613390936999,52017000000,,,-1297426102982961329,0.0,10.226430932068807,,,0,2,0.0,16392,130140861913251,1000000000,7.0,30.7275989085188,2.99792458E8,20,718.792254836283,3.4028234663852886E38,1.56109798E9,,,,0,,5,61.87746810913086,,,,,,,
Raw,1613390936999,52017000000,,,-1297426102982961329,0.0,10.226430932068807,,,0,5,0.0,16393,130140866600813,38,25.91771697998047,28.647459250636842,0.7836283003814155,20,1361.1893485739704,3.4028234663852886E38,1.56109798E9,,,,1,,5,61.87746810913086,,,,,,,
Raw,1613390936999,52017000000,,,-1297426102982961329,0.0,10.226430932068807,,,0,8,0.0,16392,130140860255139,1000000000,7.0,-351.85218261325485,2.99792458E8,20,-8083.766447006376,3.4028234663852886E38,1.56109798E9,,,,1,,5,61.87746810913086,,,,,,,
Raw,1613390936999,52017000000,,,-1297426102982961329,0.0,10.226430932068807,,,0,10,0.0,16392,130140864939808,1000000000,7.140052795410156,198.58685204074186,2.99792458E8,20,4631.582534957697,3.4028234663852886E38,1.56109798E9,,,,0,,5,61.87746810913086,,,,,,,
Raw,1613390936999,52017000000,,,-1297426102982961329,0.0,10.226430932068807,,,0,14,0.0,16431,130140920640758,30,20.05872344970703,135.04467038252182,1.0503455564480104,20,4977.778514292171,3.4028234663852886E38,1.56109798E9,,,,0,,5,61.87746810913086,,,,,,,
Raw,1613390936999,52017000000,,,-1297426102982961329,0.0,10.226430932068807,,,0,21,0.0,16392,130140913319441,1000000000,9.663455963134766,673.912753650095,2.99792458E8,20,15517.111311730278,3.4028234663852886E38,1.56109798E9,,,,1,,5,61.87746810913086,,,,,,,
Raw,1613390936999,52017000000,,,-1297426102982961329,0.0,10.226430932068807,,,0,24,0.0,16431,130140918018182,43,15.888717651367188,-414.0799998975151,1.237394471286855,20,-18272.186936526417,3.4028234663852886E38,1.56109798E9,,,,1,,5,61.87746810913086,,,,,,,
Raw,1613390936999,52017000000,,,-1297426102982961329,0.0,10.226430932068807,,,0,26,0.0,16431,130140928382943,26,21.70039176940918,-56.362401189274266,0.9743167156654322,20,-2419.8903214434245,3.4028234663852886E38,1.56109798E9,,,,0,,5,61.87746810913086,,,,,,,
Raw,1613390936999,52017000000,,,-1297426102982961329,0.0,10.226430932068807,,,0,29,0.0,16431,130140919962537,15,28.493366241455078,23.048595326843156,0.006503053475171328,17,1010.0242325703438,0.003251526737585664,1.56109798E9,,,,0,,5,61.87746810913086,,,,,,,
Raw,1613390936999,52017000000,,,-1297426102982961329,0.0,10.226430932068807,,,0,30,0.0,16392,130140910922352,1000000000,7.0,487.12538438737624,2.99792458E8,20,11195.449740940074,3.4028234663852886E38,1.56109798E9,,,,1,,5,61.87746810913086,,,,,,,
Raw,1613390936999,52017000000,,,-1297426102982961329,0.0,10.226430932068807,,,0,35,0.0,16431,130140918920934,6,39.88294982910156,-463.1665330377873,0.0018587216036394238,17,767867.3315795893,9.293608018197119E-4,1.56109798E9,,,,0,,5,61.87746810913086,,,,,,,
Raw,1613390936999,52017000000,,,-1297426102982961329,0.0,10.226430932068807,,,0,2,0.0,16392,130154917886299,1000000000,24.144086837768555,378.7304258060997,2.99792458E8,18,0.7415705500524952,3.4028234663852886E38,1.57542003E9,,,,0,,6,48.812049865722656,,,,,,,
Raw,1613390936999,52017000000,,,-1297426102982961329,0.0,10.226430932068807,,,0,7,0.0,16392,130154919245578,1000000000,7.067371368408203,87.07087770953024,2.99792458E8,18,0.4475964130964152,3.4028234663852886E38,1.57542003E9,,,,0,,6,48.812049865722656,,,,,,,
Raw,1613390936999,52017000000,,,-1297426102982961329,0.0,10.226430932068807,,,0,8,0.0,18474,130154921490679,1000000000,38.0413703918457,553.1444318878644,2.99792458E8,20,5977.307329719813,3.4028234663852886E38,1.57542003E9,,,,0,,6,48.812049865722656,,,,,,,
Raw,1613390936999,52017000000,,,-1297426102982961329,0.0,10.226430932068807,,,0,27,0.0,16392,130154911078536,1000000000,9.596918106079102,-395.81047398548435,2.99792458E8,18,-2.3114196561300266,3.4028234663852886E38,1.57542003E9,,,,0,,6,48.812049865722656,,,,,,,
Raw,1613390936999,52017000000,,,-1297426102982961329,0.0,10.226430932068807,,,0,30,0.0,18440,130154925089566,1000000000,17.487346649169922,-42.987853067041385,2.99792458E8,20,-552.4092080036119,3.4028234663852886E38,1.57542003E9,,,,1,,6,48.812049865722656,,,,,,,
Raw,1613390936999,52017000000,,,-1297426102982961329,0.0,10.226430932068807,,,0,36,0.0,18474,130154909434011,1000000000,35.55635452270508,-300.8939681554575,2.99792458E8,20,-2346.963910417716,3.4028234663852886E38,1.57542003E9,,,,0,,6,48.812049865722656,,,,,,,
Raw,1613390936999,52017000000,,,-1297426102982961329,0.0,10.226430932068807,,,0,8,0.0,18475,130154921490671,8,32.827392578125,553.1094951278428,0.005239293444901705,17,12160.83037539035,0.0026196467224508524,1.17645005E9,,,,0,,6,8.687385559082031,,,,,,,
Raw,1613390936999,52017000000,,,-1297426102982961329,0.0,10.226430932068807,,,0,30,0.0,16392,130154925089556,1000000000,16.155622482299805,-42.261611302532145,2.99792458E8,20,614.1266889381632,3.4028234663852886E38,1.17645005E9,,,,0,,6,8.687385559082031,,,,,,,
Raw,1613390936999,52017000000,,,-1297426102982961329,0.0,10.226430932068807,,,0,36,0.0,18475,130154909433997,8,31.328535079956055,-300.9822542243428,0.006226092576980591,17,-6618.69104955322,0.0031130462884902954,1.17645005E9,,,,0,,6,8.687385559082031,,,,,,,
UncalAccel,1613390937166,1521829319066,-0.1731641,0.21974812,9.881017,0.0,0.0,0.0
Nav,29,1281,1,-1,1,56,-112,17,-8,49,112,16,-11,6,42,63,96,75,-83,-64,-34,75,-83,-64,-34,75,-83,-64,-34,75,-83,-64,-34,75,-83,-64,-34,75,-83,-64,-34,75,-83,-64,-34
UncalGyro,1613390937171,1521834199066,0.0021309336,-0.009268281,0.008043608,0.007268,-0.003362,0.007032
UncalMag,1613390937180,1521842049586,-297.8065,-48.70147,-495.68326,0.0,0.0,0.0
Nav,35,1281,1,-1,1,56,-112,17,-8,49,112,16,-11,6,42,63,96,75,-83,-64,-34,75,-83,-64,-34,75,-83,-64,-34,75,-83,-64,-34,75,-83,-64,-34,75,-83,-64,-34,75,-83,-64,-34
UncalAccel,1613390937177,1521839306826,-0.1731641,0.22693336,9.888202,0.0,0.0,0.0
UncalGyro,1613390937181,1521844186826,0.004794304,-0.0028761923,0.0075109336,0.007268,-0.003362,0.007032
Nav,8,1537,1,24,0,0,-107,85,85,85,85,85,85,85,85,85,85,81,-124,64,-65,26,91,87,-69,110,34,42,-86,-86,89,24,13,127,64
UncalMag,1613390937189,1521852049586,-296.828,-47.770927,-495.90424,0.0,0.0,0.0
UncalAccel,1613390937186,1521849294586,-0.18753454,0.24130385,9.861856,0.0,0.0,0.0
Nav,36,1537,1,24,0,0,-107,85,85,85,85,85,85,85,85,85,85,81,-124,64,-65,26,65,23,-69,110,34,42,-86,-86,81,103,-14,-65,64
UncalGyro,1613390937191,1521854174586,0.007457674,0.0029832218,0.0075109336,0.007268,-0.003362,0.007032
UncalMag,1613390937199,1521862049586,-297.48422,-47.85915,-497.42264,0.0,0.0,0.0
UncalAccel,1613390937197,1521859282347,-0.17795426,0.22693336,9.8690405,0.0,0.0,0.0
UncalGyro,1613390937202,1521864162347,0.006925,0.00511392,0.0069782594,0.007268,-0.003362,0.007032
UncalMag,1613390937209,1521872049586,-298.26236,-48.348316,-496.3178,0.0,0.0,0.0
UncalGyro,1613390937211,1521874150107,0.0058596516,0.0029832218,0.0069782594,0.007268,-0.003362,0.007032
UncalAccel,1613390937206,1521869270107,-0.18274438,0.246094,9.861856,0.0,0.0,0.0
UncalMag,1613390937219,1521882049586,-297.7437,-47.467236,-496.22903,0.0,0.0,0.0
UncalAccel,1613390937216,1521879257868,-0.170769,0.24130385,9.866646,0.0,0.0,0.0
UncalGyro,1613390937221,1521884137868,0.0042616297,-0.0028761923,0.008043608,0.007268,-0.003362,0.007032
UncalMag,1613390937230,1521892049586,-297.15607,-47.815037,-496.66345,0.0,0.0,0.0
UncalAccel,1613390937227,1521889245628,-0.18274438,0.21974812,9.864251,0.0,0.0,0.0
UncalGyro,1613390937231,1521894125628,0.0031962814,-0.006072237,0.008043608,0.007268,-0.003362,0.007032
UncalMag,1613390937239,1521902049586,-296.5098,-49.396984,-498.0785,0.0,0.0,0.0
UncalAccel,1613390937236,1521899233389,-0.18513945,0.25327924,9.876226,0.0,0.0,0.0
UncalGyro,1613390937241,1521904113389,0.0037289555,-0.006604911,0.008043608,0.007268,-0.003362,0.007032
UncalMag,1613390937249,1521912049586,-296.41925,-47.747826,-498.50122,0.0,0.0,0.0
UncalAccel,1613390937246,1521909221149,-0.16837388,0.22693336,9.876226,0.0,0.0,0.0
UncalGyro,1613390937252,1521914101149,0.0042616297,-0.005006889,0.008043608,0.007268,-0.003362,0.007032
UncalMag,1613390937259,1521922049586,-296.86206,-47.788506,-497.42905,0.0,0.0,0.0
UncalGyro,1613390937261,1521924088909,0.005326978,-7.454967E-4,0.0075109336,0.007268,-0.003362,0.007032
UncalAccel,1613390937256,1521919208909,-0.18274438,0.23651367,9.861856,0.0,0.0,0.0
UncalMag,1613390937269,1521932049586,-296.42914,-48.42062,-497.0798,0.0,0.0,0.0
UncalAccel,1613390937266,1521929196722,-0.20190504,0.23651367,9.871436,0.0,0.0,0.0
UncalGyro,1613390937271,1521934076722,0.005326978,-2.1282211E-4,0.008043608,0.007268,-0.003362,0.007032
UncalMag,1613390937280,1521942049586,-296.94284,-49.833252,-495.45206,0.0,0.0,0.0
UncalAccel,1613390937276,1521939184482,-0.18753454,0.22693336,9.871436,0.0,0.0,0.0
UncalGyro,1613390937281,1521944064482,0.0058596516,-2.1282211E-4,0.008043608,0.007268,-0.003362,0.007032
UncalMag,1613390937290,1521952049586,-297.017,-50.13858,-498.02463,0.0,0.0,0.0
UncalAccel,1613390937286,1521949172243,-0.18034932,0.24130385,9.859461,0.0,0.0,0.0
UncalGyro,1613390937291,1521954052243,0.004794304,-0.001810845,0.008043608,0.007268,-0.003362,0.007032
UncalMag,1613390937299,1521962049586,-297.28714,-50.152805,-496.19162,0.0,0.0,0.0
UncalAccel,1613390937296,1521959160003,-0.18034932,0.2341186,9.864251,0.0,0.0,0.0
UncalGyro,1613390937301,1521964040003,0.0037289555,-0.003408867,0.008576281,0.007268,-0.003362,0.007032
UncalMag,1613390937309,1521972049586,-296.15863,-49.073914,-497.03394,0.0,0.0,0.0
UncalGyro,1613390937311,1521974027764,0.0042616297,-0.003408867,0.008576281,0.007268,-0.003362,0.007032
UncalAccel,1613390937307,1521969147764,-0.16837388,0.2341186,9.873831,0.0,0.0,0.0
UncalMag,1613390937320,1521982049586,-296.14923,-48.801987,-497.35855,0.0,0.0,0.0
UncalAccel,1613390937316,1521979135524,-0.18513945,0.22932844,9.864251,0.0,0.0,0.0
UncalGyro,1613390937321,1521984015524,0.0037289555,-0.001810845,0.0075109336,0.007268,-0.003362,0.007032
UncalMag,1613390937329,1521992049586,-297.5491,-48.960934,-497.34415,0.0,0.0,0.0
UncalAccel,1613390937326,1521989123284,-0.18753454,0.21735305,9.864251,0.0,0.0,0.0
UncalGyro,1613390937331,1521994003284,0.004794304,-0.001810845,0.008043608,0.007268,-0.003362,0.007032
UncalMag,1613390937339,1522002049586,-297.19058,-48.23348,-497.09143,0.0,0.0,0.0
UncalAccel,1613390937336,1521999111045,-0.18034932,0.22453828,9.864251,0.0,0.0,0.0
UncalGyro,1613390937341,1522003991045,0.005326978,-7.454967E-4,0.008043608,0.007268,-0.003362,0.007032
UncalMag,1613390937349,1522012049586,-297.219,-46.31599,-496.61734,0.0,0.0,0.0
UncalAccel,1613390937346,1522009098857,-0.18513945,0.25088418,9.852275,0.0,0.0,0.0
UncalGyro,1613390937350,1522013978857,0.004794304,-0.0012781704,0.008043608,0.007268,-0.003362,0.007032
UncalMag,1613390937359,1522022049586,-297.31796,-47.43535,-498.06363,0.0,0.0,0.0
UncalGyro,1613390937360,1522023966618,0.004794304,-2.1282211E-4,0.008576281,0.007268,-0.003362,0.007032
UncalAccel,1613390937356,1522019086618,-0.20669517,0.2341186,9.861856,0.0,0.0,0.0
UncalMag,1613390937369,1522032049586,-296.94318,-49.165733,-497.3309,0.0,0.0,0.0
UncalGyro,1613390937371,1522033954378,0.004794304,-0.0028761923,0.0075109336,0.007268,-0.003362,0.007032
UncalAccel,1613390937367,1522029074378,-0.170769,0.21735305,9.873831,0.0,0.0,0.0
UncalMag,1613390937379,1522042049586,-298.11188,-47.7991,-498.03598,0.0,0.0,0.0
UncalAccel,1613390937376,1522039062139,-0.16358376,0.21974812,9.864251,0.0,0.0,0.0
UncalGyro,1613390937380,1522043942139,0.0042616297,-0.003408867,0.0075109336,0.007268,-0.003362,0.007032
UncalMag,1613390937389,1522052049586,-296.23438,-47.848557,-496.81573,0.0,0.0,0.0
UncalGyro,1613390937390,1522053929899,0.0042616297,-0.0028761923,0.008576281,0.007268,-0.003362,0.007032
UncalAccel,1613390937386,1522049049899,-0.16118869,0.25088418,9.866646,0.0,0.0,0.0
UncalMag,1613390937400,1522062049586,-296.9034,-48.210464,-498.16202,0.0,0.0,0.0
UncalAccel,1613390937397,1522059037659,-0.1731641,0.24130385,9.864251,0.0,0.0,0.0
UncalGyro,1613390937400,1522063917659,0.004794304,-0.0023435187,0.008043608,0.007268,-0.003362,0.007032
UncalMag,1613390937409,1522072049586,-298.18124,-46.97109,-496.41595,0.0,0.0,0.0
UncalGyro,1613390937410,1522073905420,0.005326978,-2.1282211E-4,0.008043608,0.007268,-0.003362,0.007032
UncalAccel,1613390937406,1522069025420,-0.17555913,0.24369892,9.8690405,0.0,0.0,0.0
UncalMag,1613390937419,1522082049586,-298.33618,-49.321163,-497.0115,0.0,0.0,0.0
UncalGyro,1613390937420,1522083893232,0.005326978,-0.0012781704,0.008576281,0.007268,-0.003362,0.007032
UncalAccel,1613390937416,1522079013232,-0.170769,0.22693336,9.881017,0.0,0.0,0.0
UncalMag,1613390937430,1522092049586,-298.15924,-48.49123,-498.29187,0.0,0.0,0.0
UncalAccel,1613390937427,1522089000993,-0.15879357,0.22693336,9.8690405,0.0,0.0,0.0
UncalGyro,1613390937430,1522093880993,0.004794304,-0.001810845,0.008043608,0.007268,-0.003362,0.007032
UncalMag,1613390937439,1522102049586,-297.30157,-49.89318,-497.5836,0.0,0.0,0.0
UncalAccel,1613390937435,1522098988753,-0.170769,0.23890877,9.861856,0.0,0.0,0.0
UncalGyro,1613390937440,1522103868753,0.004794304,-0.001810845,0.0075109336,0.007268,-0.003362,0.007032
UncalMag,1613390937449,1522112049586,-297.53207,-48.952145,-496.58173,0.0,0.0,0.0
UncalAccel,1613390937445,1522108976514,-0.170769,0.23890877,9.8690405,0.0,0.0,0.0
UncalGyro,1613390937451,1522113856514,0.004794304,-7.454967E-4,0.0075109336,0.007268,-0.003362,0.007032
UncalMag,1613390937460,1522122049586,-297.24738,-49.197536,-497.02274,0.0,0.0,0.0
UncalGyro,1613390937460,1522123844274,0.005326978,-0.001810845,0.0069782594,0.007268,-0.003362,0.007032
UncalAccel,1613390937455,1522118964274,-0.18034932,0.22932844,9.866646,0.0,0.0,0.0
UncalMag,1613390937469,1522132049586,-297.24738,-49.197536,-497.02274,0.0,0.0,0.0
UncalAccel,1613390937465,1522128952034,-0.16837388,0.23651367,9.878621,0.0,0.0,0.0
UncalGyro,1613390937470,1522133832034,0.005326978,-2.1282211E-4,0.0075109336,0.007268,-0.003362,0.007032
UncalMag,1613390937479,1522142049586,-298.21603,-49.455288,-498.22318,0.0,0.0,0.0
UncalAccel,1613390937476,1522138939795,-0.18034932,0.21974812,9.871436,0.0,0.0,0.0
UncalGyro,1613390937481,1522143819795,0.004794304,-0.0012781704,0.008043608,0.007268,-0.003362,0.007032
UncalMag,1613390937489,1522152049586,-296.52164,-47.87157,-495.74515,0.0,0.0,0.0
UncalGyro,1613390937490,1522153807555,0.0042616297,-0.0023435187,0.008043608,0.007268,-0.003362,0.007032
UncalAccel,1613390937485,1522148927555,-0.17795426,0.23890877,9.8690405,0.0,0.0,0.0
UncalMag,1613390937499,1522162049586,-298.30246,-48.636066,-497.36557,0.0,0.0,0.0
UncalGyro,1613390937500,1522163795316,0.004794304,-0.001810845,0.0075109336,0.007268,-0.003362,0.007032
UncalAccel,1613390937496,1522158915316,-0.1731641,0.22932844,9.8690405,0.0,0.0,0.0
Raw,1613390937999,53017000000,,,-1297426102982961209,0.0,10.177118876273957,,,0,10,0.0,16392,130155920133749,1000000000,7.0,137.01131333002928,2.99792458E8,18,138.03836621110062,3.4028234663852886E38,1.57542003E9,,,,0,,1,48.692569732666016,,,,,,,
Raw,1613390937999,53017000000,,,-1297426102982961209,0.0,10.177118876273957,,,0,12,0.0,16431,130155930101673,47,23.25311279296875,-366.9463142159684,0.9048018178184782,20,-18884.943940744717,3.4028234663852886E38,1.57542003E9,,,,0,,1,48.692569732666016,,,,,,,
Raw,1613390937999,53017000000,,,-1297426102982961209,0.0,10.177118876273957,,,0,13,0.0,16431,130155921850023,14,37.55371856689453,726.1246564944086,0.002408295636996627,17,39470.590510517795,0.0012041478184983134,1.57542003E9,,,,0,,1,48.692569732666016,,,,,,,
Raw,1613390937999,53017000000,,,-1297426102982961209,0.0,10.177118876273957,,,0,14,0.0,16392,130155913962470,1000000000,7.0,690.811653573061,2.99792458E8,20,2636.7634697658714,3.4028234663852886E38,1.57542003E9,,,,0,,1,48.692569732666016,,,,,,,
Raw,1613390937999,53017000000,,,-1297426102982961209,0.0,10.177118876273957,,,0,15,0.0,16431,130155927784262,12,39.97385025024414,557.3621781075053,0.0018226496176794171,17,30256.203062394783,9.113248088397086E-4,1.57542003E9,,,,0,,1,48.692569732666016,,,,,,,
Raw,1613390937999,53017000000,,,-1297426102982961209,0.0,10.177118876273957,,,0,17,0.0,16431,130155923762359,45,23.837203979492188,345.0450956799723,0.011014360003173351,17,17833.529019794605,0.10065401640076911,1.57542003E9,,,,0,,1,48.692569732666016,,,,,,,
Raw,1613390937999,53017000000,,,-1297426102982961209,0.0,10.177118876273957,,,0,19,0.0,16431,130155927840221,13,41.68659591674805,-3.836779461863671,0.0015774101484566927,17,-209.24201608463457,7.887050742283463E-4,1.57542003E9,,,,0,,1,48.692569732666016,,,,,,,
Raw,1613390937999,53017000000,,,-1297426102982961209,0.0,10.177118876273957,,,0,20,0.0,16392,130155918967754,1000000000,7.0,478.05420225400417,2.99792458E8,20,869.7162615834645,3.4028234663852886E38,1.57542003E9,,,,0,,1,48.692569732666016,,,,,,,
Raw,1613390937999,53017000000,,,-1297426102982961209,0.0,10.177118876273957,,,0,23,0.0,16431,130155920247399,54,21.54976463317871,455.7325108386069,0.9832244186334007,20,19884.061271906285,3.4028234663852886E38,1.57542003E9,,,,0,,1,48.692569732666016,,,,,,,
Raw,1613390937999,53017000000,,,-1297426102982961209,0.0,10.177118876273957,,,0,24,0.0,16431,130155932815638,92,14.951013565063477,-14.15322681117923,1.2786261224691122,20,-639.9985832261359,3.4028234663852886E38,1.57542003E9,,,,0,,1,48.692569732666016,,,,,,,
Raw,1613390937999,53017000000,,,-1297426102982961209,0.0,10.177118876273957,,,0,25,0.0,16431,130155918698782,30,28.873802185058594,-633.6070459773364,0.006167788058519363,17,-31062.398743285004,0.0030838940292596817,1.57542003E9,,,,0,,1,48.692569732666016,,,,,,,
Raw,1613390937999,53017000000,,,-1297426102982961209,0.0,10.177118876273957,,,0,28,0.0,16392,130155915889739,1000000000,11.49776840209961,635.7646008886786,2.99792458E8,20,27723.62864287608,3.4028234663852886E38,1.57542003E9,,,,1,,1,48.692569732666016,,,,,,,
Raw,1613390937999,53017000000,,,-1297426102982961209,0.0,10.177118876273957,,,0,32,0.0,16392,130155915390147,1000000000,12.935626983642578,-636.4156439731773,2.99792458E8,18,-644.3597450064195,3.4028234663852886E38,1.57542003E9,,,,0,,1,48.692569732666016,,,,,,,
Raw,1613390937999,53017000000,,,-1297426102982961209,0.0,10.177118876273957,,,0,24,0.0,16392,130155932815551,1000000000,11.514261245727539,-13.865404726151162,2.99792458E8,20,-3609.008046916324,3.4028234663852886E38,1.17645005E9,,,,1,,1,9.172757148742676,,,,,,,
Raw,1613390937999,53017000000,,,-1297426102982961209,0.0,10.177118876273957,,,0,25,0.0,16393,130155918698768,10,30.325822830200195,-633.5982649059879,0.006987972650676966,17,-72984.39825364825,0.003493986325338483,1.17645005E9,,,,0,,1,9.172757148742676,,,,,,,
Raw,1613390937999,53017000000,,,-1297426102982961209,0.0,10.177118876273957,,,0,10,0.0,16392,54537926978140,1000000000,19.70507049560547,-456.0265401910292,2.99792458E8,20,-10937.051680224897,3.4028234663852886E38,1.59806246E9,,,,0,,3,61.50869369506836,,,,,,,
Raw,1613390937999,53017000000,,,-1297426102982961209,0.0,10.177118876273957,,,0,6,0.0,16392,54537924059108,1000000000,7.0,866.8560621275074,2.99792458E8,20,20818.108579717664,3.4028234663852886E38,1.59975002E9,,,,1,,3,61.50869369506836,,,,,,,
Raw,1613390937999,53017000000,,,-1297426102982961209,0.0,10.177118876273957,,,0,18,0.0,32995,54537927422882,112,21.148101806640625,-47.66296492981061,0.9989798329686446,20,-1958.1330899371478,3.4028234663852886E38,1.60031245E9,,,,0,,3,61.50869369506836,,,,,,,
Raw,1613390937999,53017000000,,,-1297426102982961209,0.0,10.177118876273957,,,0,9,0.0,32995,54537934486698,88,24.169849395751953,3.9897453777938665,0.010431959293782711,17,168.75671492439074,0.0052159796468913555,1.60087501E9,,,,0,,3,61.50869369506836,,,,,,,
Raw,1613390937999,53017000000,,,-1297426102982961209,0.0,10.177118876273957,,,0,16,0.0,16427,8901987,143,18.124874114990234,521.7681905778782,1.135197027191846,20,23037.587245090635,3.4028234663852886E38,1.60143744E9,,,,0,,3,61.50869369506836,,,,,,,
Raw,1613390937999,53017000000,,,-1297426102982961209,0.0,10.177118876273957,,,0,19,0.0,16491,1925203830,95,23.223276138305664,-614.8456070539341,0.9052625966545151,20,-27308.64935740866,3.4028234663852886E38,1.60368755E9,,,,0,,3,61.50869369506836,,,,,,,
Raw,1613390937999,53017000000,,,-1297426102982961209,0.0,10.177118876273957,,,0,7,0.0,32995,54537932196798,102,22.325498580932617,387.2955857074776,0.9468924534127869,20,17105.668993442316,3.4028234663852886E38,1.60481254E9,,,,0,,3,61.50869369506836,,,,,,,
Raw,1613390937999,53017000000,,,-1297426102982961209,0.0,10.177118876273957,,,0,8,0.0,32994,54537928500463,1000000000,12.392406463623047,-342.9300089798005,2.99792458E8,20,-16386.226702579606,3.4028234663852886E38,1.60537498E9,,,,1,,3,61.50869369506836,,,,,,,
Raw,1613390937999,53017000000,,,-1297426102982961209,0.0,10.177118876273957,,,0,2,0.0,16392,130141861913148,1000000000,7.0,30.352887860892892,2.99792458E8,20,749.1445032884451,3.4028234663852886E38,1.56109798E9,,,,0,,5,61.96491241455078,,,,,,,
Raw,1613390937999,53017000000,,,-1297426102982961209,0.0,10.177118876273957,,,0,5,0.0,16393,130141866600706,37,26.033584594726562,28.127265107189785,0.7784178117058951,20,1389.0212559926624,3.4028234663852886E38,1.56109798E9,,,,1,,5,61.96491241455078,,,,,,,
Raw,1613390937999,53017000000,,,-1297426102982961209,0.0,10.177118876273957,,,0,8,0.0,16392,130141860256481,1000000000,7.0,-352.22688514026663,2.99792458E8,20,-8436.000806383394,3.4028234663852886E38,1.56109798E9,,,,1,,5,61.96491241455078,,,,,,,
Raw,1613390937999,53017000000,,,-1297426102982961209,0.0,10.177118876273957,,,0,10,0.0,16392,130141864939232,1000000000,11.635868072509766,200.60969695905544,2.99792458E8,20,4830.761337613829,3.4028234663852886E38,1.56109798E9,,,,0,,5,61.96491241455078,,,,,,,
Raw,1613390937999,53017000000,,,-1297426102982961209,0.0,10.177118876273957,,,0,14,0.0,16431,130141920640329,50,20.31451988220215,134.9101554472404,299.7961722308578,20,5112.559383540472,3.4028234663852886E38,1.56109798E9,,,,0,,5,61.96491241455078,,,,,,,
Raw,1613390937999,53017000000,,,-1297426102982961209,0.0,10.177118876273957,,,0,21,0.0,16392,130141913317190,1000000000,7.0,673.7313668164807,2.99792458E8,20,16190.518910337676,3.4028234663852886E38,1.56109798E9,,,,1,,5,61.96491241455078,,,,,,,
Raw,1613390937999,53017000000,,,-1297426102982961209,0.0,10.177118876273957,,,0,24,0.0,16431,130141918019628,40,16.64900016784668,-415.26252480903054,1.2032055070874108,20,-18687.148895601364,3.4028234663852886E38,1.56109798E9,,,,1,,5,61.96491241455078,,,,,,,
Raw,1613390937999,53017000000,,,-1297426102982961209,0.0,10.177118876273957,,,0,26,0.0,16431,130141928383141,23,23.574199676513672,-56.41245553698508,0.8900537664022963,20,-2476.3348626449942,3.4028234663852886E38,1.56109798E9,,,,0,,5,61.96491241455078,,,,,,,
Raw,1613390937999,53017000000,,,-1297426102982961209,0.0,10.177118876273957,,,0,29,0.0,16431,130141919962456,15,28.728986740112305,23.140670503145998,0.006329018156975508,17,1033.1649030734898,0.003164509078487754,1.56109798E9,,,,0,,5,61.96491241455078,,,,,,,
Raw,1613390937999,53017000000,,,-1297426102982961209,0.0,10.177118876273957,,,0,30,0.0,16392,130141910920726,1000000000,7.0,486.37594525089617,2.99792458E8,20,11681.817685773369,3.4028234663852886E38,1.56109798E9,,,,1,,5,61.96491241455078,,,,,,,
Raw,1613390937999,53017000000,,,-1297426102982961209,0.0,10.177118876273957,,,0,35,0.0,16431,130141918922481,6,39.86354064941406,-463.1107007241808,0.0018628798425197601,17,767404.2208788651,9.314399212598801E-4,1.56109798E9,,,,0,,5,61.96491241455078,,,,,,,
Raw,1613390937999,53017000000,,,-1297426102982961209,0.0,10.177118876273957,,,0,2,0.0,16392,130155917885031,1000000000,25.13038444519043,378.7304258060997,2.99792458E8,18,0.7504557209480596,3.4028234663852886E38,1.57542003E9,,,,0,,6,48.692569732666016,,,,,,,
Raw,1613390937999,53017000000,,,-1297426102982961209,0.0,10.177118876273957,,,0,7,0.0,16392,130155919245287,1000000000,7.0,87.25652485020998,2.99792458E8,18,0.45019208876138506,3.4028234663852886E38,1.57542003E9,,,,0,,6,48.692569732666016,,,,,,,
Raw,1613390937999,53017000000,,,-1297426102982961209,0.0,10.177118876273957,,,0,8,0.0,18474,130155921488836,1000000000,38.02239227294922,553.14545436156,2.99792458E8,20,6530.402784564384,3.4028234663852886E38,1.57542003E9,,,,0,,6,48.692569732666016,,,,,,,
Raw,1613390937999,53017000000,,,-1297426102982961209,0.0,10.177118876273957,,,0,27,0.0,16392,130155911079853,1000000000,15.121846199035645,-395.81047398548435,2.99792458E8,18,-2.3207055319262,3.4028234663852886E38,1.57542003E9,,,,0,,6,48.692569732666016,,,,,,,
Raw,1613390937999,53017000000,,,-1297426102982961209,0.0,10.177118876273957,,,0,30,0.0,18440,130155925089789,1000000000,16.73725700378418,-42.66965925294443,2.99792458E8,20,-596.8640331344554,3.4028234663852886E38,1.57542003E9,,,,1,,6,48.692569732666016,,,,,,,
Raw,1613390937999,53017000000,,,-1297426102982961209,0.0,10.177118876273957,,,0,36,0.0,18474,130155909435012,1000000000,35.930816650390625,-300.85903363752163,2.99792458E8,20,-2647.9888126209626,3.4028234663852886E38,1.57542003E9,,,,0,,6,48.692569732666016,,,,,,,
Raw,1613390937999,53017000000,,,-1297426102982961209,0.0,10.177118876273957,,,0,8,0.0,18475,130155921488825,8,34.17424774169922,553.1061653270881,0.004758896306157113,17,12713.936540717437,0.002379448153078556,1.17645005E9,,,,0,,6,9.172757148742676,,,,,,,
Raw,1613390937999,53017000000,,,-1297426102982961209,0.0,10.177118876273957,,,0,30,0.0,16392,130155925089692,1000000000,17.086688995361328,-42.256754552477645,2.99792458E8,20,571.4344295932514,3.4028234663852886E38,1.17645005E9,,,,0,,6,9.172757148742676,,,,,,,
Raw,1613390937999,53017000000,,,-1297426102982961209,0.0,10.177118876273957,,,0,36,0.0,18475,130155909435005,9,31.275917053222656,-300.9242663999685,0.006263925228267908,17,-6919.615315953189,0.003131962614133954,1.17645005E9,,,,0,,6,9.172757148742676,,,,,,,
UncalMag,1613390937510,1522172049586,-297.37473,-48.39941,-497.99493,0.0,0.0,0.0
UncalAccel,1613390937505,1522168903128,-0.18034932,0.22693336,9.876226,0.0,0.0,0.0
UncalGyro,1613390937511,1522173783128,0.004794304,-2.1282211E-4,0.0075109336,0.007268,-0.003362,0.007032
UncalMag,1613390937520,1522182049586,-299.1045,-49.13754,-497.32812,0.0,0.0,0.0
UncalAccel,1613390937515,1522178890889,-0.17795426,0.23651367,9.876226,0.0,0.0,0.0
UncalGyro,1613390937520,1522183770889,0.0058596516,-7.454967E-4,0.0075109336,0.007268,-0.003362,0.007032
UncalMag,1613390937529,1522192049586,-295.65146,-48.332317,-497.08783,0.0,0.0,0.0
UncalAccel,1613390937525,1522188878649,-0.18274438,0.22693336,9.857065,0.0,0.0,0.0
UncalGyro,1613390937531,1522193758649,0.005326978,-0.0023435187,0.008576281,0.007268,-0.003362,0.007032
UncalMag,1613390937540,1522202049586,-297.38803,-49.073963,-496.72598,0.0,0.0,0.0
UncalAccel,1613390937535,1522198866409,-0.170769,0.23890877,9.8690405,0.0,0.0,0.0
UncalGyro,1613390937540,1522203746409,0.0042616297,-0.0023435187,0.008043608,0.007268,-0.003362,0.007032
UncalMag,1613390937549,1522212049586,-296.34802,-47.043392,-497.17795,0.0,0.0,0.0
UncalGyro,1613390937550,1522213734170,0.0042616297,-0.0028761923,0.008043608,0.007268,-0.003362,0.007032
UncalAccel,1613390937545,1522208854170,-0.18753454,0.25088418,9.8690405,0.0,0.0,0.0
UncalMag,1613390937559,1522222049586,-297.6054,-49.524124,-498.37222,0.0,0.0,0.0
UncalGyro,1613390937561,1522223721930,0.0031962814,-0.0023435187,0.008576281,0.007268,-0.003362,0.007032
UncalAccel,1613390937556,1522218841930,-0.18513945,0.23890877,9.866646,0.0,0.0,0.0
UncalMag,1613390937569,1522232049586,-297.23068,-48.52123,-498.1392,0.0,0.0,0.0
UncalAccel,1613390937565,1522228829743,-0.18753454,0.23172352,9.8690405,0.0,0.0,0.0
UncalGyro,1613390937570,1522233709743,0.0042616297,-0.0023435187,0.008043608,0.007268,-0.003362,0.007032
UncalMag,1613390937579,1522242049586,-296.3719,-47.0557,-498.24533,0.0,0.0,0.0
UncalAccel,1613390937575,1522238817503,-0.18753454,0.23172352,9.859461,0.0,0.0,0.0
UncalGyro,1613390937580,1522243697503,0.0037289555,-0.001810845,0.008576281,0.007268,-0.003362,0.007032
UncalMag,1613390937590,1522252049586,-297.9576,-47.91564,-497.72278,0.0,0.0,0.0
UncalGyro,1613390937591,1522253685264,0.0042616297,-0.0023435187,0.008043608,0.007268,-0.003362,0.007032
UncalAccel,1613390937585,1522248805264,-0.170769,0.2341186,9.873831,0.0,0.0,0.0
UncalMag,1613390937599,1522262049586,-297.92773,-47.633167,-497.13248,0.0,0.0,0.0
UncalAccel,1613390937595,1522258793024,-0.15639853,0.21495795,9.866646,0.0,0.0,0.0
UncalGyro,1613390937600,1522263673024,0.0042616297,-0.001810845,0.0075109336,0.007268,-0.003362,0.007032
UncalMag,1613390937609,1522272049586,-298.23987,-49.46759,-499.29053,0.0,0.0,0.0
UncalGyro,1613390937610,1522273660784,0.004794304,-0.0023435187,0.0075109336,0.007268,-0.003362,0.007032
UncalAccel,1613390937605,1522268780784,-0.17555913,0.23172352,9.871436,0.0,0.0,0.0
UncalMag,1613390937620,1522282049586,-297.58237,-49.245167,-498.0869,0.0,0.0,0.0
UncalGyro,1613390937621,1522283648545,0.0042616297,-0.001810845,0.008043608,0.007268,-0.003362,0.007032
UncalAccel,1613390937615,1522278768545,-0.18513945,0.2341186,9.878621,0.0,0.0,0.0
UncalGyro,1613390937630,1522293636357,0.004794304,-0.001810845,0.008576281,0.007268,-0.003362,0.007032
UncalAccel,1613390937625,1522288756357,-0.1731641,0.23172352,9.866646,0.0,0.0,0.0
UncalMag,1613390937629,1522292049586,-298.0152,-48.613045,-498.43613,0.0,0.0,0.0
UncalMag,1613390937639,1522302049586,-298.1927,-49.843845,-496.059,0.0,0.0,0.0
UncalGyro,1613390937640,1522303624118,0.0042616297,-0.0023435187,0.008043608,0.007268,-0.003362,0.007032
UncalAccel,1613390937636,1522298744118,-0.1731641,0.23651367,9.864251,0.0,0.0,0.0
UncalAccel,1613390937646,1522308731878,-0.17795426,0.2341186,9.864251,0.0,0.0,0.0
UncalMag,1613390937649,1522312049586,-297.82382,-48.04274,-498.32452,0.0,0.0,0.0
UncalGyro,1613390937650,1522313611878,0.004794304,-0.0028761923,0.0075109336,0.007268,-0.003362,0.007032
UncalMag,1613390937659,1522322049586,-297.255,-48.9344,-498.10974,0.0,0.0,0.0
UncalAccel,1613390937655,1522318719639,-0.18992963,0.22453828,9.8690405,0.0,0.0,0.0
UncalGyro,1613390937660,1522323599639,0.005326978,-0.0023435187,0.008043608,0.007268,-0.003362,0.007032
UncalMag,1613390937669,1522332049586,-297.81702,-48.039223,-498.01956,0.0,0.0,0.0
UncalGyro,1613390937670,1522333587399,0.004794304,-0.0012781704,0.008043608,0.007268,-0.003362,0.007032
UncalAccel,1613390937666,1522328707399,-0.1731641,0.21735305,9.878621,0.0,0.0,0.0
UncalMag,1613390937680,1522342049586,-298.76987,-48.42239,-498.1428,0.0,0.0,0.0
UncalGyro,1613390937680,1522343575159,0.004794304,-0.0023435187,0.0075109336,0.007268,-0.003362,0.007032
UncalAccel,1613390937675,1522338695159,-0.15639853,0.22693336,9.871436,0.0,0.0,0.0
UncalGyro,1613390937690,1522353562920,0.005326978,-0.0023435187,0.0075109336,0.007268,-0.003362,0.007032
UncalAccel,1613390937685,1522348682920,-0.17795426,0.22932844,9.8690405,0.0,0.0,0.0
UncalMag,1613390937689,1522352049586,-298.7293,-47.733776,-498.19186,0.0,0.0,0.0
UncalMag,1613390937699,1522362049586,-298.1998,-49.179844,-498.2428,0.0,0.0,0.0
UncalGyro,1613390937700,1522363550732,0.005326978,-0.001810845,0.0075109336,0.007268,-0.003362,0.007032
UncalAccel,1613390937696,1522358670732,-0.16358376,0.2221432,9.864251,0.0,0.0,0.0
UncalAccel,1613390937705,1522368658493,-0.16597882,0.21735305,9.871436,0.0,0.0,0.0
UncalGyro,1613390937710,1522373538493,0.004794304,-0.0023435187,0.0075109336,0.007268,-0.003362,0.007032
UncalMag,1613390937709,1522372049586,-297.21365,-48.51244,-497.37677,0.0,0.0,0.0
UncalMag,1613390937719,1522382049586,-296.92645,-48.48942,-498.44733,0.0,0.0,0.0
UncalGyro,1613390937720,1522383526253,0.004794304,-0.0023435187,0.008043608,0.007268,-0.003362,0.007032
UncalAccel,1613390937715,1522378646253,-0.17795426,0.21256289,9.876226,0.0,0.0,0.0
UncalAccel,1613390937725,1522388634014,-0.17555913,0.24369892,9.861856,0.0,0.0,0.0
UncalGyro,1613390937731,1522393514014,0.0042616297,-0.001810845,0.008576281,0.007268,-0.003362,0.007032
UncalMag,1613390937729,1522392049586,-297.97513,-48.3253,-497.3884,0.0,0.0,0.0
UncalMag,1613390937739,1522402049586,-295.88293,-49.19038,-498.2472,0.0,0.0,0.0
UncalAccel,1613390937735,1522398621774,-0.16597882,0.23172352,9.866646,0.0,0.0,0.0
UncalGyro,1613390937740,1522403501774,0.0042616297,-0.001810845,0.008043608,0.007268,-0.003362,0.007032
UncalMag,1613390937749,1522412049586,-299.6976,-48.659046,-497.51343,0.0,0.0,0.0
UncalGyro,1613390937750,1522413489534,0.0042616297,-0.001810845,0.008576281,0.007268,-0.003362,0.007032
UncalAccel,1613390937745,1522408609534,-0.17555913,0.22932844,9.876226,0.0,0.0,0.0
UncalMag,1613390937760,1522422049586,-297.5017,-48.268803,-497.08823,0.0,0.0,0.0
UncalGyro,1613390937761,1522423477347,0.005326978,-0.0028761923,0.008043608,0.007268,-0.003362,0.007032
UncalAccel,1613390937755,1522418597347,-0.17795426,0.21256289,9.864251,0.0,0.0,0.0
UncalMag,1613390937769,1522432049586,-297.8141,-48.43833,-496.77026,0.0,0.0,0.0
UncalAccel,1613390937765,1522428585107,-0.18513945,0.23651367,9.876226,0.0,0.0,0.0
UncalGyro,1613390937770,1522433465107,0.005326978,-0.0028761923,0.008043608,0.007268,-0.003362,0.007032
UncalMag,1613390937779,1522442049586,-298.2627,-47.680798,-498.1967,0.0,0.0,0.0
UncalAccel,1613390937775,1522438572868,-0.18274438,0.23172352,9.8690405,0.0,0.0,0.0
UncalGyro,1613390937781,1522443452868,0.0058596516,-0.001810845,0.008043608,0.007268,-0.003362,0.007032
UncalAccel,1613390937785,1522448560628,-0.18513945,0.21735305,9.871436,0.0,0.0,0.0
UncalGyro,1613390937790,1522453440628,0.005326978,-0.0012781704,0.0075109336,0.007268,-0.003362,0.007032
UncalMag,1613390937789,1522452049586,-298.0092,-48.342876,-498.9132,0.0,0.0,0.0
UncalMag,1613390937799,1522462049586,-298.05576,-49.30166,-498.38705,0.0,0.0,0.0
UncalGyro,1613390937800,1522463428389,0.0058596516,-0.0023435187,0.008043608,0.007268,-0.003362,0.007032
UncalAccel,1613390937795,1522458548389,-0.16597882,0.2221432,9.859461,0.0,0.0,0.0
UncalMag,1613390937810,1522472049586,-297.52557,-48.28111,-498.1556,0.0,0.0,0.0
UncalAccel,1613390937805,1522468536201,-0.18274438,0.25088418,9.864251,0.0,0.0,0.0
UncalGyro,1613390937810,1522473416201,0.0042616297,-0.0012781704,0.008043608,0.007268,-0.003362,0.007032
UncalMag,1613390937819,1522482049586,-297.43152,-49.36347,-497.9262,0.0,0.0,0.0
UncalGyro,1613390937820,1522483403961,0.0042616297,-0.0012781704,0.008576281,0.007268,-0.003362,0.007032
UncalAccel,1613390937815,1522478523961,-0.15400344,0.23651367,9.864251,0.0,0.0,0.0
UncalAccel,1613390937825,1522488511722,-0.1731641,0.23172352,9.859461,0.0,0.0,0.0
UncalMag,1613390937829,1522492049586,-297.27835,-48.545837,-500.27393,0.0,0.0,0.0
UncalGyro,1613390937831,1522493391722,0.004794304,-7.454967E-4,0.008576281,0.007268,-0.003362,0.007032
UncalGyro,1613390937841,1522503379482,0.004794304,-0.001810845,0.008043608,0.007268,-0.003362,0.007032
UncalAccel,1613390937835,1522498499482,-0.17555913,0.23890877,9.854671,0.0,0.0,0.0
UncalMag,1613390937839,1522502049586,-297.21365,-48.51244,-497.37677,0.0,0.0,0.0
UncalMag,1613390937849,1522512049586,-297.21365,-48.51244,-497.37677,0.0,0.0,0.0
UncalAccel,1613390937845,1522508487295,-0.17555913,0.23172352,9.866646,0.0,0.0,0.0
UncalGyro,1613390937850,1522513367295,0.0042616297,-7.454967E-4,0.0075109336,0.007268,-0.003362,0.007032
UncalMag,1613390937859,1522522049586,-297.84735,-48.722565,-497.51303,0.0,0.0,0.0
UncalAccel,1613390937855,1522518475055,-0.170769,0.24369892,9.876226,0.0,0.0,0.0
UncalGyro,1613390937860,1522523355055,0.0042616297,-0.0012781704,0.0075109336,0.007268,-0.003362,0.007032
UncalMag,1613390937869,1522532049586,-296.1893,-49.089733,-498.40628,0.0,0.0,0.0
UncalGyro,1613390937870,1522533342816,0.004794304,-7.454967E-4,0.008043608,0.007268,-0.003362,0.007032
Raw,1613390938999,54017000000,,,-1297426102982961088,0.0,10.159617971525682,,,0,10,0.0,16392,130156920133290,1000000000,19.118921279907227,137.19696047070903,2.99792458E8,18,138.0367138937577,3.4028234663852886E38,1.57542003E9,,,,0,,1,48.34901428222656,,,,,,,
Raw,1613390938999,54017000000,,,-1297426102982961088,0.0,10.159617971525682,,,0,12,0.0,16431,130156930102900,44,24.020967483520508,-366.15707788782674,0.010783782228827477,17,-19251.101018632544,0.10053872751359617,1.57542003E9,,,,0,,1,48.34901428222656,,,,,,,
Raw,1613390938999,54017000000,,,-1297426102982961088,0.0,10.159617971525682,,,0,13,0.0,16431,130156921847600,16,36.567440032958984,726.2724794216775,0.0026978866662830114,17,40196.86298993947,0.0013489433331415057,1.57542003E9,,,,0,,1,48.34901428222656,,,,,,,
Raw,1613390938999,54017000000,,,-1297426102982961088,0.0,10.159617971525682,,,0,14,0.0,16392,130156913960164,1000000000,7.0,690.811653573061,2.99792458E8,20,3327.575117548969,3.4028234663852886E38,1.57542003E9,,,,1,,1,48.34901428222656,,,,,,,
Raw,1613390938999,54017000000,,,-1297426102982961088,0.0,10.159617971525682,,,0,15,0.0,16431,130156927782406,12,40.27046203613281,557.5386205265349,0.0017614591633900998,17,30813.741682921318,8.8072958169505E-4,1.57542003E9,,,,0,,1,48.34901428222656,,,,,,,
Raw,1613390938999,54017000000,,,-1297426102982961088,0.0,10.159617971525682,,,0,17,0.0,16431,130156923761220,45,23.67280387878418,345.3120318661797,0.8847882265714158,20,18178.826100269598,3.4028234663852886E38,1.57542003E9,,,,0,,1,48.34901428222656,,,,,,,
Raw,1613390938999,54017000000,,,-1297426102982961088,0.0,10.159617971525682,,,0,19,0.0,16431,130156927840246,13,41.5648193359375,-3.601174557857007,0.0015996816800907254,17,-212.84319064249158,7.998408400453627E-4,1.57542003E9,,,,0,,1,48.34901428222656,,,,,,,
Raw,1613390938999,54017000000,,,-1297426102982961088,0.0,10.159617971525682,,,0,20,0.0,16392,130156918966158,1000000000,7.0,478.23991755959696,2.99792458E8,20,869.6860228524451,3.4028234663852886E38,1.57542003E9,,,,0,,1,48.34901428222656,,,,,,,
Raw,1613390938999,54017000000,,,-1297426102982961088,0.0,10.159617971525682,,,0,23,0.0,16431,130156920245865,54,21.519163131713867,456.6426146751355,0.9846002981136155,20,20340.372665135124,3.4028234663852886E38,1.57542003E9,,,,0,,1,48.34901428222656,,,,,,,
Raw,1613390938999,54017000000,,,-1297426102982961088,0.0,10.159617971525682,,,0,24,0.0,16431,130156932815626,90,15.274657249450684,-12.232759201799574,1.2640721147262974,20,-653.7460727331245,3.4028234663852886E38,1.57542003E9,,,,0,,1,48.34901428222656,,,,,,,
Raw,1613390938999,54017000000,,,-1297426102982961088,0.0,10.159617971525682,,,0,25,0.0,16431,130156918700903,29,29.252376556396484,-633.4839546411422,0.005904737859964371,17,-31695.882697926147,0.0029523689299821854,1.57542003E9,,,,0,,1,48.34901428222656,,,,,,,
Raw,1613390938999,54017000000,,,-1297426102982961088,0.0,10.159617971525682,,,0,28,0.0,16393,130156915887413,122,11.451784133911133,635.7111595968508,1.4365349363847413,20,28357.941806818646,3.4028234663852886E38,1.57542003E9,,,,1,,1,48.34901428222656,,,,,,,
Raw,1613390938999,54017000000,,,-1297426102982961088,0.0,10.159617971525682,,,0,32,0.0,16392,130156915392270,1000000000,7.0,-636.4156439731773,2.99792458E8,18,-644.3348607190637,3.4028234663852886E38,1.57542003E9,,,,0,,1,48.34901428222656,,,,,,,
